Time,header.seq,header.stamp.secs,header.stamp.nsecs,header.frame_id,orientation.x,orientation.y,orientation.z,orientation.w,orientation_covariance_0,orientation_covariance_1,orientation_covariance_2,orientation_covariance_3,orientation_covariance_4,orientation_covariance_5,orientation_covariance_6,orientation_covariance_7,orientation_covariance_8,angular_velocity.x,angular_velocity.y,angular_velocity.z,angular_velocity_covariance_0,angular_velocity_covariance_1,angular_velocity_covariance_2,angular_velocity_covariance_3,angular_velocity_covariance_4,angular_velocity_covariance_5,angular_velocity_covariance_6,angular_velocity_covariance_7,angular_velocity_covariance_8,linear_acceleration.x,linear_acceleration.y,linear_acceleration.z,linear_acceleration_covariance_0,linear_acceleration_covariance_1,linear_acceleration_covariance_2,linear_acceleration_covariance_3,linear_acceleration_covariance_4,linear_acceleration_covariance_5,linear_acceleration_covariance_6,linear_acceleration_covariance_7,linear_acceleration_covariance_8
1616766028.6464126,123648,1616766027,709571776,fcu,-0.03649007655546047,0.02166314916554594,-0.9924437282338721,-0.1151287478020166,1.0,0.0,0.0,0.0,1.0,0.0,0.0,0.0,1.0,0.006179662421345711,-0.008172443136572838,-0.0066536073572933665,1.2184696791468346e-07,0.0,0.0,0.0,1.2184696791468346e-07,0.0,0.0,0.0,1.2184696791468346e-07,0.61781895,-0.23535959999999878,9.91452315,8.999999999999999e-08,0.0,0.0,0.0,8.999999999999999e-08,0.0,0.0,0.0,8.999999999999999e-08
1616766028.6465797,123649,1616766027,748571776,fcu,-0.036552787977501805,0.021804392287060603,-0.9924181992644864,-0.11530212459750283,1.0,0.0,0.0,0.0,1.0,0.0,0.0,0.0,1.0,0.0017129438929259777,-0.0053410008549690255,-0.006852191407233476,1.2184696791468346e-07,0.0,0.0,0.0,1.2184696791468346e-07,0.0,0.0,0.0,1.2184696791468346e-07,0.4707192,0.3432327500000012,9.8654899,8.999999999999999e-08,0.0,0.0,0.0,8.999999999999999e-08,0.0,0.0,0.0,8.999999999999999e-08
1616766028.6468623,123650,1616766027,789571776,fcu,-0.03652326344136794,0.022070530647513138,-0.9923833928078588,-0.11556013405882026,1.0,0.0,0.0,0.0,1.0,0.0,0.0,0.0,1.0,-0.005560196936130524,-0.004317434504628182,-0.009860537946224213,1.2184696791468346e-07,0.0,0.0,0.0,1.2184696791468346e-07,0.0,0.0,0.0,1.2184696791468346e-07,0.4511059,-0.029419949999998817,9.6889702,8.999999999999999e-08,0.0,0.0,0.0,8.999999999999999e-08,0.0,0.0,0.0,8.999999999999999e-08
1616766028.6473038,123651,1616766027,828571776,fcu,-0.036695016393002204,0.022405755786541713,-0.9923619370112818,-0.11562544638083821,1.0,0.0,0.0,0.0,1.0,0.0,0.0,0.0,1.0,-0.010876482352614403,-0.003706561401486398,-0.009411055594682693,1.2184696791468346e-07,0.0,0.0,0.0,1.2184696791468346e-07,0.0,0.0,0.0,1.2184696791468346e-07,0.59820565,-0.019613299999998786,9.9243298,8.999999999999999e-08,0.0,0.0,0.0,8.999999999999999e-08,0.0,0.0,0.0,8.999999999999999e-08
1616766028.6480339,123652,1616766027,868571776,fcu,-0.03645954948802403,0.022910561161357177,-0.9923404101855614,-0.1157856543409147,1.0,0.0,0.0,0.0,1.0,0.0,0.0,0.0,1.0,-0.016515709459781647,-0.0011128336191177375,-0.0061263637617230415,1.2184696791468346e-07,0.0,0.0,0.0,1.2184696791468346e-07,0.0,0.0,0.0,1.2184696791468346e-07,0.8237586,0.2059396500000012,9.73800345,8.999999999999999e-08,0.0,0.0,0.0,8.999999999999999e-08,0.0,0.0,0.0,8.999999999999999e-08
1616766028.6481657,123653,1616766027,909571776,fcu,-0.036518333071922496,0.02357511445054157,-0.9922853471955717,-0.11610518967408767,1.0,0.0,0.0,0.0,1.0,0.0,0.0,0.0,1.0,-0.024794481694698334,-0.0013201925903558742,-0.00923328660428524,1.2184696791468346e-07,0.0,0.0,0.0,1.2184696791468346e-07,0.0,0.0,0.0,1.2184696791468346e-07,0.4118793,0.009806650000001194,9.73800345,8.999999999999999e-08,0.0,0.0,0.0,8.999999999999999e-08,0.0,0.0,0.0,8.999999999999999e-08
1616766028.6484878,123654,1616766027,948571776,fcu,-0.03638944257772759,0.024202273097996937,-0.9922371813011157,-0.11642780805885378,1.0,0.0,0.0,0.0,1.0,0.0,0.0,0.0,1.0,-0.03016958385705948,0.00021466426551341848,-0.013269409537315369,1.2184696791468346e-07,0.0,0.0,0.0,1.2184696791468346e-07,0.0,0.0,0.0,1.2184696791468346e-07,0.3530394,-0.2941994999999988,9.9831697,8.999999999999999e-08,0.0,0.0,0.0,8.999999999999999e-08,0.0,0.0,0.0,8.999999999999999e-08
1616766028.648694,123655,1616766027,989571776,fcu,-0.036212374093169984,0.024833627944665357,-0.9921956032017247,-0.11670406964972657,1.0,0.0,0.0,0.0,1.0,0.0,0.0,0.0,1.0,-0.03264116868376732,0.0014636293053626995,-0.015079908072948456,1.2184696791468346e-07,0.0,0.0,0.0,1.2184696791468346e-07,0.0,0.0,0.0,1.2184696791468346e-07,0.5687857000000001,-0.43149259999999884,9.8851032,8.999999999999999e-08,0.0,0.0,0.0,8.999999999999999e-08,0.0,0.0,0.0,8.999999999999999e-08
1616766028.6489162,123656,1616766028,28571776,fcu,-0.03615669937615521,0.025431117712347944,-0.9921656884206649,-0.11684690009953752,1.0,0.0,0.0,0.0,1.0,0.0,0.0,0.0,1.0,-0.03242821618914604,0.002804024145007132,-0.012392347678542137,1.2184696791468346e-07,0.0,0.0,0.0,1.2184696791468346e-07,0.0,0.0,0.0,1.2184696791468346e-07,0.5099458,-0.6570455499999988,9.9439431,8.999999999999999e-08,0.0,0.0,0.0,8.999999999999999e-08,0.0,0.0,0.0,8.999999999999999e-08
1616766028.6490507,123657,1616766028,68571776,fcu,-0.035944858446229265,0.025846841370318497,-0.9921534101504639,-0.11692526959243466,1.0,0.0,0.0,0.0,1.0,0.0,0.0,0.0,1.0,-0.0292179174721241,0.004681767895817756,-0.008165263570845127,1.2184696791468346e-07,0.0,0.0,0.0,1.2184696791468346e-07,0.0,0.0,0.0,1.2184696791468346e-07,0.71588545,-0.9120184499999987,9.8262633,8.999999999999999e-08,0.0,0.0,0.0,8.999999999999999e-08,0.0,0.0,0.0,8.999999999999999e-08
1616766028.6493769,123658,1616766028,109571776,fcu,-0.03582888243874615,0.026131390625284055,-0.9921466948202694,-0.11695459616618048,1.0,0.0,0.0,0.0,1.0,0.0,0.0,0.0,1.0,-0.022290267050266266,0.006642712280154227,-0.0035933712497353562,1.2184696791468346e-07,0.0,0.0,0.0,1.2184696791468346e-07,0.0,0.0,0.0,1.2184696791468346e-07,0.42168595,-0.8629851999999988,9.8458766,8.999999999999999e-08,0.0,0.0,0.0,8.999999999999999e-08,0.0,0.0,0.0,8.999999999999999e-08
1616766028.6497896,123659,1616766028,148571776,fcu,-0.03574424764307164,0.026028595339449588,-0.9921543288028281,-0.11693865410075288,1.0,0.0,0.0,0.0,1.0,0.0,0.0,0.0,1.0,-0.011703373864293098,0.004565289244055748,-0.001155354548245669,1.2184696791468346e-07,0.0,0.0,0.0,1.2184696791468346e-07,0.0,0.0,0.0,1.2184696791468346e-07,-0.22555295,-1.0493115499999988,9.95374975,8.999999999999999e-08,0.0,0.0,0.0,8.999999999999999e-08,0.0,0.0,0.0,8.999999999999999e-08
1616766028.650108,123660,1616766028,188571776,fcu,-0.03583911036737827,0.02561676518872294,-0.9921608146391254,-0.11694553178282452,1.0,0.0,0.0,0.0,1.0,0.0,0.0,0.0,1.0,0.004027999006211758,0.0046971868723630905,-0.00010123057290911731,1.2184696791468346e-07,0.0,0.0,0.0,1.2184696791468346e-07,0.0,0.0,0.0,1.2184696791468346e-07,-0.1176798,-0.3138127999999988,9.83606995,8.999999999999999e-08,0.0,0.0,0.0,8.999999999999999e-08,0.0,0.0,0.0,8.999999999999999e-08
1616766028.650358,123661,1616766028,228571776,fcu,-0.035738249603216705,0.02546911059471415,-0.9921524097565171,-0.11707987758427435,1.0,0.0,0.0,0.0,1.0,0.0,0.0,0.0,1.0,0.011448843404650688,0.001902084797620773,-0.0020555695518851285,1.2184696791468346e-07,0.0,0.0,0.0,1.2184696791468346e-07,0.0,0.0,0.0,1.2184696791468346e-07,0.2353596,-0.08825984999999882,9.6497436,8.999999999999999e-08,0.0,0.0,0.0,8.999999999999999e-08,0.0,0.0,0.0,8.999999999999999e-08
1616766028.6508746,123662,1616766028,268571776,fcu,-0.03583397874204245,0.025246582809471212,-0.9921580079978396,-0.11705136987544479,1.0,0.0,0.0,0.0,1.0,0.0,0.0,0.0,1.0,0.010678173042833805,0.00031205452978610954,-0.0029642200097441673,1.2184696791468346e-07,0.0,0.0,0.0,1.2184696791468346e-07,0.0,0.0,0.0,1.2184696791468346e-07,0.5491724,-0.33342609999999884,9.65955025,8.999999999999999e-08,0.0,0.0,0.0,8.999999999999999e-08,0.0,0.0,0.0,8.999999999999999e-08
1616766028.6513915,123663,1616766028,309571776,fcu,-0.03588547612037132,0.025075601792275047,-0.9921720560491762,-0.11695322994051843,1.0,0.0,0.0,0.0,1.0,0.0,0.0,0.0,1.0,0.009721919894218445,0.0003885328769683839,0.0007034945301711559,1.2184696791468346e-07,0.0,0.0,0.0,1.2184696791468346e-07,0.0,0.0,0.0,1.2184696791468346e-07,0.51975245,-0.2549728999999988,9.81645665,8.999999999999999e-08,0.0,0.0,0.0,8.999999999999999e-08,0.0,0.0,0.0,8.999999999999999e-08
1616766028.6514962,123664,1616766028,348571776,fcu,-0.035819898831837435,0.025000936153973814,-0.9921619197115464,-0.11707524551928505,1.0,0.0,0.0,0.0,1.0,0.0,0.0,0.0,1.0,0.005861992947757244,-0.0001197680830955505,0.0003170697018504143,1.2184696791468346e-07,0.0,0.0,0.0,1.2184696791468346e-07,0.0,0.0,0.0,1.2184696791468346e-07,0.3334261,-0.2451662499999988,9.79684335,8.999999999999999e-08,0.0,0.0,0.0,8.999999999999999e-08,0.0,0.0,0.0,8.999999999999999e-08
1616766028.6518679,123665,1616766028,389571776,fcu,-0.03594838805875555,0.0247732201976616,-0.9921404461274915,-0.11726609107051106,1.0,0.0,0.0,0.0,1.0,0.0,0.0,0.0,1.0,0.004456410650163889,-3.12551856041019e-06,-0.005259362049400806,1.2184696791468346e-07,0.0,0.0,0.0,1.2184696791468346e-07,0.0,0.0,0.0,1.2184696791468346e-07,0.2157463,-0.49033249999999884,9.7674234,8.999999999999999e-08,0.0,0.0,0.0,8.999999999999999e-08,0.0,0.0,0.0,8.999999999999999e-08
1616766028.651881,123666,1616766028,428571776,fcu,-0.035830724135876985,0.024511181742094008,-0.9921359476094447,-0.1173951559418615,1.0,0.0,0.0,0.0,1.0,0.0,0.0,0.0,1.0,0.006737240590155125,0.002257712185382842,-0.008397150784730911,1.2184696791468346e-07,0.0,0.0,0.0,1.2184696791468346e-07,0.0,0.0,0.0,1.2184696791468346e-07,0.588399,-0.5099457999999988,9.8654899,8.999999999999999e-08,0.0,0.0,0.0,8.999999999999999e-08,0.0,0.0,0.0,8.999999999999999e-08
1616766028.6522484,123667,1616766028,468571776,fcu,-0.035824869897710665,0.0242154306977185,-0.9921406428793348,-0.11741863719153162,1.0,0.0,0.0,0.0,1.0,0.0,0.0,0.0,1.0,0.010831242427229881,0.0031249560415744773,-0.005998569540679455,1.2184696791468346e-07,0.0,0.0,0.0,1.2184696791468346e-07,0.0,0.0,0.0,1.2184696791468346e-07,0.8825985000000001,0.029419950000001197,9.7674234,8.999999999999999e-08,0.0,0.0,0.0,8.999999999999999e-08,0.0,0.0,0.0,8.999999999999999e-08
1616766028.6526628,123668,1616766028,509571776,fcu,-0.03580202336770679,0.02414621494269673,-0.9921291586522643,-0.11753683668820508,1.0,0.0,0.0,0.0,1.0,0.0,0.0,0.0,1.0,0.008129377849400043,0.0035079717636108394,-0.004910237155854702,1.2184696791468346e-07,0.0,0.0,0.0,1.2184696791468346e-07,0.0,0.0,0.0,1.2184696791468346e-07,0.5295591,-0.1667130499999988,9.79684335,8.999999999999999e-08,0.0,0.0,0.0,8.999999999999999e-08,0.0,0.0,0.0,8.999999999999999e-08
1616766028.6527402,123669,1616766028,548571776,fcu,-0.035593849881762486,0.024028825912809193,-0.9921313049566107,-0.11760598241985404,1.0,0.0,0.0,0.0,1.0,0.0,0.0,0.0,1.0,0.003005542093887925,0.005822936072945594,-0.003961914684623481,1.2184696791468346e-07,0.0,0.0,0.0,1.2184696791468346e-07,0.0,0.0,0.0,1.2184696791468346e-07,0.40207265000000003,-0.1667130499999988,9.75761675,8.999999999999999e-08,0.0,0.0,0.0,8.999999999999999e-08,0.0,0.0,0.0,8.999999999999999e-08
1616766028.6530447,123670,1616766028,589571776,fcu,-0.035344332463913476,0.023818396520640377,-0.9921085552482231,-0.11791554924245135,1.0,0.0,0.0,0.0,1.0,0.0,0.0,0.0,1.0,0.001496502780355513,0.011081503704190254,-0.0069104772992432135,1.2184696791468346e-07,0.0,0.0,0.0,1.2184696791468346e-07,0.0,0.0,0.0,1.2184696791468346e-07,0.67665885,-0.1274864499999988,9.79684335,8.999999999999999e-08,0.0,0.0,0.0,8.999999999999999e-08,0.0,0.0,0.0,8.999999999999999e-08
1616766028.6539683,123671,1616766028,628571776,fcu,-0.035130363838261174,0.023712643969491895,-0.9920858098608676,-0.11819185219495476,1.0,0.0,0.0,0.0,1.0,0.0,0.0,0.0,1.0,-0.0005976422689855099,0.012648787349462507,-0.011331066489219667,1.2184696791468346e-07,0.0,0.0,0.0,1.2184696791468346e-07,0.0,0.0,0.0,1.2184696791468346e-07,0.8237586,-0.45110589999999884,9.7674234,8.999999999999999e-08,0.0,0.0,0.0,8.999999999999999e-08,0.0,0.0,0.0,8.999999999999999e-08
1616766028.6681402,123672,1616766028,669571776,fcu,-0.03500781410247706,0.023600319286503725,-0.9920687713863536,-0.11839354172129601,1.0,0.0,0.0,0.0,1.0,0.0,0.0,0.0,1.0,-0.0012242116499692202,0.01269855350255966,-0.012744197621941568,1.2184696791468346e-07,0.0,0.0,0.0,1.2184696791468346e-07,0.0,0.0,0.0,1.2184696791468346e-07,0.55897905,-0.21574629999999878,9.8851032,8.999999999999999e-08,0.0,0.0,0.0,8.999999999999999e-08,0.0,0.0,0.0,8.999999999999999e-08
1616766028.7587128,123673,1616766028,709571776,fcu,-0.03466393511781697,0.023522636579533664,-0.9920651230255795,-0.1185406632625976,1.0,0.0,0.0,0.0,1.0,0.0,0.0,0.0,1.0,-0.0026155165396630764,0.013423109427094458,-0.010301222093403341,1.2184696791468346e-07,0.0,0.0,0.0,1.2184696791468346e-07,0.0,0.0,0.0,1.2184696791468346e-07,0.1765197,-0.0392265999999988,9.79684335,8.999999999999999e-08,0.0,0.0,0.0,8.999999999999999e-08,0.0,0.0,0.0,8.999999999999999e-08
1616766028.7587337,123674,1616766028,748571776,fcu,-0.03458831597629496,0.023636168636237822,-0.9920553984109813,-0.1186215259291184,1.0,0.0,0.0,0.0,1.0,0.0,0.0,0.0,1.0,-0.005877298768609762,0.011665560305118559,-0.007500223815441133,1.2184696791468346e-07,0.0,0.0,0.0,1.2184696791468346e-07,0.0,0.0,0.0,1.2184696791468346e-07,0.26477955,-0.5099457999999988,9.9439431,8.999999999999999e-08,0.0,0.0,0.0,8.999999999999999e-08,0.0,0.0,0.0,8.999999999999999e-08
1616766028.7833908,123675,1616766028,789571776,fcu,-0.03430252162299551,0.023637745014220973,-0.9920624592765714,-0.11864514703546808,1.0,0.0,0.0,0.0,1.0,0.0,0.0,0.0,1.0,-0.008002707734704018,0.01185029186308384,-0.0032188193872571005,1.2184696791468346e-07,0.0,0.0,0.0,1.2184696791468346e-07,0.0,0.0,0.0,1.2184696791468346e-07,0.588399,-0.4216859499999988,9.7674234,8.999999999999999e-08,0.0,0.0,0.0,8.999999999999999e-08,0.0,0.0,0.0,8.999999999999999e-08
1616766028.8235898,123676,1616766028,828571776,fcu,-0.034160947496823746,0.023494189385774703,-0.9920663508974008,-0.11868196218608817,1.0,0.0,0.0,0.0,1.0,0.0,0.0,0.0,1.0,-0.005564565770328045,0.010339098051190376,-0.001593408174812795,1.2184696791468346e-07,0.0,0.0,0.0,1.2184696791468346e-07,0.0,0.0,0.0,1.2184696791468346e-07,0.26477955,-0.3824593499999988,9.8262633,8.999999999999999e-08,0.0,0.0,0.0,8.999999999999999e-08,0.0,0.0,0.0,8.999999999999999e-08
1616766028.8650806,123677,1616766028,869571776,fcu,-0.03518334511634337,0.023467062338790846,-0.9920217832505945,-0.11876115007830684,1.0,0.0,0.0,0.0,1.0,0.0,0.0,0.0,1.0,-0.0018037031404674053,-0.0059569962322711945,-0.0021355063654482356,1.2184696791468346e-07,0.0,0.0,0.0,1.2184696791468346e-07,0.0,0.0,0.0,1.2184696791468346e-07,-1.02969825,-0.7747253499999988,10.05181625,8.999999999999999e-08,0.0,0.0,0.0,8.999999999999999e-08,0.0,0.0,0.0,8.999999999999999e-08
1616766028.9031866,123678,1616766028,908571776,fcu,-0.03558135992483164,0.02320332784740462,-0.9920270386107526,-0.11865044065609576,1.0,0.0,0.0,0.0,1.0,0.0,0.0,0.0,1.0,0.004286171868443489,-0.023783260956406593,-0.0012575094588100882,1.2184696791468346e-07,0.0,0.0,0.0,1.2184696791468346e-07,0.0,0.0,0.0,1.2184696791468346e-07,-2.0397832,-0.6962721499999988,10.52253545,8.999999999999999e-08,0.0,0.0,0.0,8.999999999999999e-08,0.0,0.0,0.0,8.999999999999999e-08
1616766028.9445624,123679,1616766028,948571776,fcu,-0.03597644218802827,0.022417400172912282,-0.9920922442048847,-0.11813608578878043,1.0,0.0,0.0,0.0,1.0,0.0,0.0,0.0,1.0,0.018331339582800865,-0.03202977776527405,0.008806341327726844,1.2184696791468346e-07,0.0,0.0,0.0,1.2184696791468346e-07,0.0,0.0,0.0,1.2184696791468346e-07,0.3726527,0.009806650000001187,9.6889702,8.999999999999999e-08,0.0,0.0,0.0,8.999999999999999e-08,0.0,0.0,0.0,8.999999999999999e-08
1616766028.9895303,123680,1616766028,988571776,fcu,-0.03577677416865487,0.022116026649670974,-0.9921411581742892,-0.1178423779966119,1.0,0.0,0.0,0.0,1.0,0.0,0.0,0.0,1.0,0.023305309936404228,-0.004949266090989111,0.017089301720261574,1.2184696791468346e-07,0.0,0.0,0.0,1.2184696791468346e-07,0.0,0.0,0.0,1.2184696791468346e-07,3.01064155,0.36284605000000114,9.1201845,8.999999999999999e-08,0.0,0.0,0.0,8.999999999999999e-08,0.0,0.0,0.0,8.999999999999999e-08
1616766029.0245178,123681,1616766029,28571776,fcu,-0.03554097467088485,0.02209296597898948,-0.992161593588879,-0.117745964605461,1.0,0.0,0.0,0.0,1.0,0.0,0.0,0.0,1.0,0.011165522038936615,0.00036776810884475876,0.013856468722224236,1.2184696791468346e-07,0.0,0.0,0.0,1.2184696791468346e-07,0.0,0.0,0.0,1.2184696791468346e-07,2.99102825,-0.48052584999999887,8.89463155,8.999999999999999e-08,0.0,0.0,0.0,8.999999999999999e-08,0.0,0.0,0.0,8.999999999999999e-08
1616766029.0644631,123682,1616766029,69571776,fcu,-0.0357429177839608,0.021952835709978392,-0.9922021263975456,-0.11736889368469217,1.0,0.0,0.0,0.0,1.0,0.0,0.0,0.0,1.0,0.0018614192958921194,0.005208041518926622,0.013514520600438118,1.2184696791468346e-07,0.0,0.0,0.0,1.2184696791468346e-07,0.0,0.0,0.0,1.2184696791468346e-07,-0.00980665,-0.5883989999999988,10.0420096,8.999999999999999e-08,0.0,0.0,0.0,8.999999999999999e-08,0.0,0.0,0.0,8.999999999999999e-08
1616766029.1071224,123683,1616766029,108571776,fcu,-0.035276144239742784,0.021623276063800746,-0.9922296773078063,-0.11733837841683459,1.0,0.0,0.0,0.0,1.0,0.0,0.0,0.0,1.0,0.004630980081856251,0.009951990097761156,0.010799326933920382,1.2184696791468346e-07,0.0,0.0,0.0,1.2184696791468346e-07,0.0,0.0,0.0,1.2184696791468346e-07,-1.57887065,0.07845320000000124,10.1204628,8.999999999999999e-08,0.0,0.0,0.0,8.999999999999999e-08,0.0,0.0,0.0,8.999999999999999e-08
1616766029.1462104,123684,1616766029,149571776,fcu,-0.03544527316428169,0.021380887156440275,-0.9922411782781289,-0.11723452735411743,1.0,0.0,0.0,0.0,1.0,0.0,0.0,0.0,1.0,0.007138934452086687,0.007459381595253945,0.005891927983611821,1.2184696791468346e-07,0.0,0.0,0.0,1.2184696791468346e-07,0.0,0.0,0.0,1.2184696791468346e-07,-0.6276256,-0.2549728999999988,9.8262633,8.999999999999999e-08,0.0,0.0,0.0,8.999999999999999e-08,0.0,0.0,0.0,8.999999999999999e-08
1616766029.190249,123685,1616766029,189571776,fcu,-0.0353849754588621,0.021145163087698524,-0.9923039463759027,-0.11676328017223564,1.0,0.0,0.0,0.0,1.0,0.0,0.0,0.0,1.0,0.008276361972093582,0.005289414897561074,0.009497551247477531,1.2184696791468346e-07,0.0,0.0,0.0,1.2184696791468346e-07,0.0,0.0,0.0,1.2184696791468346e-07,1.0395049,-0.5883989999999988,10.002783,8.999999999999999e-08,0.0,0.0,0.0,8.999999999999999e-08,0.0,0.0,0.0,8.999999999999999e-08
1616766029.229652,123686,1616766029,228571776,fcu,-0.03537882054107485,0.02078084206279989,-0.9923840567812163,-0.1161480929965667,1.0,0.0,0.0,0.0,1.0,0.0,0.0,0.0,1.0,0.011717447079718113,0.00175905413925648,0.020534604787826538,1.2184696791468346e-07,0.0,0.0,0.0,1.2184696791468346e-07,0.0,0.0,0.0,1.2184696791468346e-07,2.01036325,-1.1081514499999987,9.9831697,8.999999999999999e-08,0.0,0.0,0.0,8.999999999999999e-08,0.0,0.0,0.0,8.999999999999999e-08
1616766029.2628412,123687,1616766029,268571776,fcu,-0.035278820585112565,0.020226859637978916,-0.9924570957549657,-0.11565116537643666,1.0,0.0,0.0,0.0,1.0,0.0,0.0,0.0,1.0,0.01786758564412594,0.004656421020627025,0.02642061375081539,1.2184696791468346e-07,0.0,0.0,0.0,1.2184696791468346e-07,0.0,0.0,0.0,1.2184696791468346e-07,1.28467115,-0.9512450499999987,9.73800345,8.999999999999999e-08,0.0,0.0,0.0,8.999999999999999e-08,0.0,0.0,0.0,8.999999999999999e-08
1616766029.3075624,123688,1616766029,309571776,fcu,-0.03525032327980039,0.01936876058812271,-0.9925055865293801,-0.11539032251415515,1.0,0.0,0.0,0.0,1.0,0.0,0.0,0.0,1.0,0.027968360111117363,0.0058741569519042995,0.022577449679374695,1.2184696791468346e-07,0.0,0.0,0.0,1.2184696791468346e-07,0.0,0.0,0.0,1.2184696791468346e-07,-0.16671305,-0.7649186999999987,9.7281968,8.999999999999999e-08,0.0,0.0,0.0,8.999999999999999e-08,0.0,0.0,0.0,8.999999999999999e-08
1616766029.3468804,123689,1616766029,348571776,fcu,-0.03520276569837009,0.018114349932435356,-0.9925756251722271,-0.11500549520641812,1.0,0.0,0.0,0.0,1.0,0.0,0.0,0.0,1.0,0.044211503118276596,0.007498430088162424,0.017118385061621666,1.2184696791468346e-07,0.0,0.0,0.0,1.2184696791468346e-07,0.0,0.0,0.0,1.2184696791468346e-07,-0.30400615,-0.8433718999999987,9.71839015,8.999999999999999e-08,0.0,0.0,0.0,8.999999999999999e-08,0.0,0.0,0.0,8.999999999999999e-08
1616766029.3856306,123690,1616766029,389571776,fcu,-0.03537506602056101,0.01676074727170019,-0.9926810287544288,-0.11424560037911424,1.0,0.0,0.0,0.0,1.0,0.0,0.0,0.0,1.0,0.06098183989524841,0.0074159316718578365,0.022450337186455727,1.2184696791468346e-07,0.0,0.0,0.0,1.2184696791468346e-07,0.0,0.0,0.0,1.2184696791468346e-07,0.4707192,-0.08825984999999882,9.6301303,8.999999999999999e-08,0.0,0.0,0.0,8.999999999999999e-08,0.0,0.0,0.0,8.999999999999999e-08
1616766029.4283004,123691,1616766029,428571776,fcu,-0.035443276187851744,0.015762407982031067,-0.9927615036679607,-0.11366581501317641,1.0,0.0,0.0,0.0,1.0,0.0,0.0,0.0,1.0,0.06398119777441025,0.0028805974870920216,0.02787643112242222,1.2184696791468346e-07,0.0,0.0,0.0,1.2184696791468346e-07,0.0,0.0,0.0,1.2184696791468346e-07,0.8433719,0.9022118000000012,9.7478101,8.999999999999999e-08,0.0,0.0,0.0,8.999999999999999e-08,0.0,0.0,0.0,8.999999999999999e-08
1616766029.464559,123692,1616766029,468571776,fcu,-0.03559131225599107,0.015400986343670469,-0.9928125445903819,-0.11322243335801224,1.0,0.0,0.0,0.0,1.0,0.0,0.0,0.0,1.0,0.04873277246952057,-0.00041272491216659215,0.02714693918824196,1.2184696791468346e-07,0.0,0.0,0.0,1.2184696791468346e-07,0.0,0.0,0.0,1.2184696791468346e-07,0.7060788,1.314091100000001,9.85568325,8.999999999999999e-08,0.0,0.0,0.0,8.999999999999999e-08,0.0,0.0,0.0,8.999999999999999e-08
1616766029.5035675,123693,1616766029,509571776,fcu,-0.035398777485443574,0.015656011117025446,-0.9928536161502997,-0.11288716829521872,1.0,0.0,0.0,0.0,1.0,0.0,0.0,0.0,1.0,0.019668681547045708,0.0004446618258953122,0.022663427516818047,1.2184696791468346e-07,0.0,0.0,0.0,1.2184696791468346e-07,0.0,0.0,0.0,1.2184696791468346e-07,0.4118793,1.6671305000000012,9.7870367,8.999999999999999e-08,0.0,0.0,0.0,8.999999999999999e-08,0.0,0.0,0.0,8.999999999999999e-08
1616766029.5423203,123694,1616766029,548571776,fcu,-0.03534116202425173,0.016659911419540534,-0.9928389965595343,-0.11289010819786416,1.0,0.0,0.0,0.0,1.0,0.0,0.0,0.0,1.0,-0.015173028223216534,0.002725129947066309,0.013830563984811306,1.2184696791468346e-07,0.0,0.0,0.0,1.2184696791468346e-07,0.0,0.0,0.0,1.2184696791468346e-07,-0.0980665,1.696550450000001,9.95374975,8.999999999999999e-08,0.0,0.0,0.0,8.999999999999999e-08,0.0,0.0,0.0,8.999999999999999e-08
1616766029.5864446,123695,1616766029,589571776,fcu,-0.03508911455101257,0.01805467124684959,-0.9928178249879089,-0.11294046782474365,1.0,0.0,0.0,0.0,1.0,0.0,0.0,0.0,1.0,-0.04932977631688118,0.002527011558413506,0.0045536598190665245,1.2184696791468346e-07,0.0,0.0,0.0,1.2184696791468346e-07,0.0,0.0,0.0,1.2184696791468346e-07,-0.0784532,0.6570455500000013,9.93413645,8.999999999999999e-08,0.0,0.0,0.0,8.999999999999999e-08,0.0,0.0,0.0,8.999999999999999e-08
1616766029.6241639,123696,1616766029,628571776,fcu,-0.034940243825057844,0.01949050860307642,-0.9928070607654851,-0.11284254308565306,1.0,0.0,0.0,0.0,1.0,0.0,0.0,0.0,1.0,-0.06990651786327362,0.002516325563192368,0.0027256440371274944,1.2184696791468346e-07,0.0,0.0,0.0,1.2184696791468346e-07,0.0,0.0,0.0,1.2184696791468346e-07,0.2941995,-0.4903324999999987,10.05181625,8.999999999999999e-08,0.0,0.0,0.0,8.999999999999999e-08,0.0,0.0,0.0,8.999999999999999e-08
1616766029.6626725,123697,1616766029,668571776,fcu,-0.0346474068002457,0.020692838281309696,-0.9927957587794352,-0.11281819443444235,1.0,0.0,0.0,0.0,1.0,0.0,0.0,0.0,1.0,-0.07477306574583054,0.003822928294539452,0.0035242070443928237,1.2184696791468346e-07,0.0,0.0,0.0,1.2184696791468346e-07,0.0,0.0,0.0,1.2184696791468346e-07,0.7060788,-1.647517199999999,9.9439431,8.999999999999999e-08,0.0,0.0,0.0,8.999999999999999e-08,0.0,0.0,0.0,8.999999999999999e-08
1616766029.7063649,123698,1616766029,709571776,fcu,-0.034369850725698856,0.021173264081727323,-0.9928133245615851,-0.1126592598155669,1.0,0.0,0.0,0.0,1.0,0.0,0.0,0.0,1.0,-0.05822303518652916,0.007158739492297173,0.005286927800625562,1.2184696791468346e-07,0.0,0.0,0.0,1.2184696791468346e-07,0.0,0.0,0.0,1.2184696791468346e-07,1.01008495,-2.383015949999999,9.77723005,8.999999999999999e-08,0.0,0.0,0.0,8.999999999999999e-08,0.0,0.0,0.0,8.999999999999999e-08
1616766029.7449129,123699,1616766029,748571776,fcu,-0.03419790146135882,0.020974991441139713,-0.9928372917951949,-0.112537395075887,1.0,0.0,0.0,0.0,1.0,0.0,0.0,0.0,1.0,-0.02747570537030697,0.009965160861611368,0.007284708321094512,1.2184696791468346e-07,0.0,0.0,0.0,1.2184696791468346e-07,0.0,0.0,0.0,1.2184696791468346e-07,0.7649187,-1.902490099999999,9.54187045,8.999999999999999e-08,0.0,0.0,0.0,8.999999999999999e-08,0.0,0.0,0.0,8.999999999999999e-08
1616766029.788239,123700,1616766029,789571776,fcu,-0.03405633516991744,0.020116652854548812,-0.9928776289500809,-0.11238104930631998,1.0,0.0,0.0,0.0,1.0,0.0,0.0,0.0,1.0,0.007657387759536505,0.011105906218290329,0.006950006820261477,1.2184696791468346e-07,0.0,0.0,0.0,1.2184696791468346e-07,0.0,0.0,0.0,1.2184696791468346e-07,-0.0392266,-1.441577549999999,9.6497436,8.999999999999999e-08,0.0,0.0,0.0,8.999999999999999e-08,0.0,0.0,0.0,8.999999999999999e-08
1616766029.8251252,123701,1616766029,828571776,fcu,-0.03350003102245586,0.018945353353486308,-0.9929568501268361,-0.11205139576996787,1.0,0.0,0.0,0.0,1.0,0.0,0.0,0.0,1.0,0.03762282803654671,0.01862829178571701,0.009984396398067473,1.2184696791468346e-07,0.0,0.0,0.0,1.2184696791468346e-07,0.0,0.0,0.0,1.2184696791468346e-07,0.5295591,-0.5099457999999988,9.5712904,8.999999999999999e-08,0.0,0.0,0.0,8.999999999999999e-08,0.0,0.0,0.0,8.999999999999999e-08
1616766029.8629577,123702,1616766029,868571776,fcu,-0.03270997973930082,0.017661729545776196,-0.9930751525541135,-0.11144443420167116,1.0,0.0,0.0,0.0,1.0,0.0,0.0,0.0,1.0,0.0558539517223835,0.03674956038594246,0.017914205789566037,1.2184696791468346e-07,0.0,0.0,0.0,1.2184696791468346e-07,0.0,0.0,0.0,1.2184696791468346e-07,1.6475172,0.31381280000000117,9.5320638,8.999999999999999e-08,0.0,0.0,0.0,8.999999999999999e-08,0.0,0.0,0.0,8.999999999999999e-08
1616766029.9037528,123703,1616766029,909571776,fcu,-0.032278923773486956,0.01708122974708697,-0.9931499659586638,-0.11099300782778004,1.0,0.0,0.0,0.0,1.0,0.0,0.0,0.0,1.0,0.05167950317263603,0.03721482306718826,0.02401628345251083,1.2184696791468346e-07,0.0,0.0,0.0,1.2184696791468346e-07,0.0,0.0,0.0,1.2184696791468346e-07,1.176798,0.8825985000000012,9.62032365,8.999999999999999e-08,0.0,0.0,0.0,8.999999999999999e-08,0.0,0.0,0.0,8.999999999999999e-08
1616766029.9451773,123704,1616766029,948571776,fcu,-0.03237884533709855,0.016792434603045966,-0.9932443157158799,-0.11016058193760764,1.0,0.0,0.0,0.0,1.0,0.0,0.0,0.0,1.0,0.033191829919815063,0.024635210633277897,0.030408447608351704,1.2184696791468346e-07,0.0,0.0,0.0,1.2184696791468346e-07,0.0,0.0,0.0,1.2184696791468346e-07,-1.2160246,0.46091255000000125,10.395049,8.999999999999999e-08,0.0,0.0,0.0,8.999999999999999e-08,0.0,0.0,0.0,8.999999999999999e-08
1616766029.9839523,123705,1616766029,989571776,fcu,-0.03222287907701192,0.016826943023177804,-0.9933078280046197,-0.10962709007005422,1.0,0.0,0.0,0.0,1.0,0.0,0.0,0.0,1.0,0.015394129790365696,0.006396174430847172,0.03552611172199249,1.2184696791468346e-07,0.0,0.0,0.0,1.2184696791468346e-07,0.0,0.0,0.0,1.2184696791468346e-07,-1.8436502,1.4611908500000015,10.56176205,8.999999999999999e-08,0.0,0.0,0.0,8.999999999999999e-08,0.0,0.0,0.0,8.999999999999999e-08
1616766030.027678,123706,1616766030,28571776,fcu,-0.03249159231396594,0.017505017294179425,-0.9932535979324353,-0.10993252927457642,1.0,0.0,0.0,0.0,1.0,0.0,0.0,0.0,1.0,-0.009128942154347897,-0.00320986285805702,0.017947543412446976,1.2184696791468346e-07,0.0,0.0,0.0,1.2184696791468346e-07,0.0,0.0,0.0,1.2184696791468346e-07,-0.16671305,0.5197524500000013,10.3754357,8.999999999999999e-08,0.0,0.0,0.0,8.999999999999999e-08,0.0,0.0,0.0,8.999999999999999e-08
1616766030.06603,123707,1616766030,68571776,fcu,-0.03242567917088193,0.017973446607119237,-0.9932994388555876,-0.1094612046185448,1.0,0.0,0.0,0.0,1.0,0.0,0.0,0.0,1.0,-0.02591925673186779,-0.0070969127118587485,0.007654378656297923,1.2184696791468346e-07,0.0,0.0,0.0,1.2184696791468346e-07,0.0,0.0,0.0,1.2184696791468346e-07,1.372931,-1.0787314999999988,9.551677100000001,8.999999999999999e-08,0.0,0.0,0.0,8.999999999999999e-08,0.0,0.0,0.0,8.999999999999999e-08
1616766030.1027987,123708,1616766030,109571776,fcu,-0.03256107060033162,0.01847734520256994,-0.9933817959030606,-0.10858624205688028,1.0,0.0,0.0,0.0,1.0,0.0,0.0,0.0,1.0,-0.028058307245373726,-0.009506005793809887,0.023288456723093987,1.2184696791468346e-07,0.0,0.0,0.0,1.2184696791468346e-07,0.0,0.0,0.0,1.2184696791468346e-07,1.6867438,0.21574630000000114,9.4928372,8.999999999999999e-08,0.0,0.0,0.0,8.999999999999999e-08,0.0,0.0,0.0,8.999999999999999e-08
1616766030.1515052,123709,1616766030,148571776,fcu,-0.032416088473238854,0.019157722180462133,-0.9934048087146211,-0.108300807529852,1.0,0.0,0.0,0.0,1.0,0.0,0.0,0.0,1.0,-0.03067825362086296,-0.0032267477363347973,0.02746742032468319,1.2184696791468346e-07,0.0,0.0,0.0,1.2184696791468346e-07,0.0,0.0,0.0,1.2184696791468346e-07,0.42168595,0.029419950000001166,9.54187045,8.999999999999999e-08,0.0,0.0,0.0,8.999999999999999e-08,0.0,0.0,0.0,8.999999999999999e-08
1616766030.1834478,123710,1616766030,189571776,fcu,-0.03229093164530045,0.019733231463469312,-0.9934430328555115,-0.10788343607955281,1.0,0.0,0.0,0.0,1.0,0.0,0.0,0.0,1.0,-0.03294619172811508,-0.001694934442639348,0.02378508262336254,1.2184696791468346e-07,0.0,0.0,0.0,1.2184696791468346e-07,0.0,0.0,0.0,1.2184696791468346e-07,-1.02969825,-0.9610516999999987,9.71839015,8.999999999999999e-08,0.0,0.0,0.0,8.999999999999999e-08,0.0,0.0,0.0,8.999999999999999e-08
1616766030.2247415,123711,1616766030,228571776,fcu,-0.032239542995299554,0.01998965390487577,-0.993473395404442,-0.10757154934175939,1.0,0.0,0.0,0.0,1.0,0.0,0.0,0.0,1.0,-0.026041751727461815,0.0025636274367570903,0.020862948149442673,1.2184696791468346e-07,0.0,0.0,0.0,1.2184696791468346e-07,0.0,0.0,0.0,1.2184696791468346e-07,-0.5099458,-0.8629851999999988,9.7870367,8.999999999999999e-08,0.0,0.0,0.0,8.999999999999999e-08,0.0,0.0,0.0,8.999999999999999e-08
1616766030.2626274,123712,1616766030,268571776,fcu,-0.03237069372565296,0.019906052031509205,-0.993493618717954,-0.10736068576040042,1.0,0.0,0.0,0.0,1.0,0.0,0.0,0.0,1.0,-0.012987895868718624,-0.0007963050156831722,0.015983905643224716,1.2184696791468346e-07,0.0,0.0,0.0,1.2184696791468346e-07,0.0,0.0,0.0,1.2184696791468346e-07,0.51975245,-1.2552511999999987,9.87529655,8.999999999999999e-08,0.0,0.0,0.0,8.999999999999999e-08,0.0,0.0,0.0,8.999999999999999e-08
1616766030.3034859,123713,1616766030,309571776,fcu,-0.0324842926392111,0.019491569955370994,-0.9935595542469636,-0.10679073741191242,1.0,0.0,0.0,0.0,1.0,0.0,0.0,0.0,1.0,0.005604869220405817,-0.00485572963953018,0.017431125044822693,1.2184696791468346e-07,0.0,0.0,0.0,1.2184696791468346e-07,0.0,0.0,0.0,1.2184696791468346e-07,1.0198916,-0.5785923499999988,9.97336305,8.999999999999999e-08,0.0,0.0,0.0,8.999999999999999e-08,0.0,0.0,0.0,8.999999999999999e-08
1616766030.346768,123714,1616766030,348571776,fcu,-0.03248731785827739,0.01920090710783213,-0.9936154882878857,-0.1063210269844968,1.0,0.0,0.0,0.0,1.0,0.0,0.0,0.0,1.0,0.017178397625684738,-0.002506913617253301,0.021969953551888466,1.2184696791468346e-07,0.0,0.0,0.0,1.2184696791468346e-07,0.0,0.0,0.0,1.2184696791468346e-07,0.85317855,0.10787315000000121,9.8458766,8.999999999999999e-08,0.0,0.0,0.0,8.999999999999999e-08,0.0,0.0,0.0,8.999999999999999e-08
1616766030.38444,123715,1616766030,389571776,fcu,-0.03233124858091267,0.01907989305906945,-0.9936691216459239,-0.10588826532469042,1.0,0.0,0.0,0.0,1.0,0.0,0.0,0.0,1.0,0.015920301899313927,0.0005029663443565397,0.022668365389108658,1.2184696791468346e-07,0.0,0.0,0.0,1.2184696791468346e-07,0.0,0.0,0.0,1.2184696791468346e-07,0.26477955,-0.07845319999999881,9.7478101,8.999999999999999e-08,0.0,0.0,0.0,8.999999999999999e-08,0.0,0.0,0.0,8.999999999999999e-08
1616766030.4284413,123716,1616766030,428571776,fcu,-0.032422316199094726,0.01899525734359207,-0.9937093471213603,-0.10549742676661017,1.0,0.0,0.0,0.0,1.0,0.0,0.0,0.0,1.0,0.011564135551452637,0.0039582513272762325,0.02282359078526497,1.2184696791468346e-07,0.0,0.0,0.0,1.2184696791468346e-07,0.0,0.0,0.0,1.2184696791468346e-07,-0.30400615,-0.0784531999999988,9.8262633,8.999999999999999e-08,0.0,0.0,0.0,8.999999999999999e-08,0.0,0.0,0.0,8.999999999999999e-08
1616766030.4649174,123717,1616766030,468571776,fcu,-0.032397847627126636,0.01889768614537012,-0.9937302197104418,-0.10532572032375309,1.0,0.0,0.0,0.0,1.0,0.0,0.0,0.0,1.0,0.007854048162698746,0.0010680388659238837,0.01818094030022621,1.2184696791468346e-07,0.0,0.0,0.0,1.2184696791468346e-07,0.0,0.0,0.0,1.2184696791468346e-07,-0.16671305,-0.1961329999999988,9.75761675,8.999999999999999e-08,0.0,0.0,0.0,8.999999999999999e-08,0.0,0.0,0.0,8.999999999999999e-08
1616766030.5050664,123718,1616766030,509571776,fcu,-0.03256584942826833,0.01870716127302345,-0.9937512201218928,-0.10510956224040735,1.0,0.0,0.0,0.0,1.0,0.0,0.0,0.0,1.0,0.007988054305315018,-0.00290437415242195,0.011483630165457726,1.2184696791468346e-07,0.0,0.0,0.0,1.2184696791468346e-07,0.0,0.0,0.0,1.2184696791468346e-07,0.85317855,-0.5197524499999988,9.81645665,8.999999999999999e-08,0.0,0.0,0.0,8.999999999999999e-08,0.0,0.0,0.0,8.999999999999999e-08
1616766030.5466864,123719,1616766030,548571776,fcu,-0.032403259239109715,0.018571194193824796,-0.9937834759401905,-0.10487870367777719,1.0,0.0,0.0,0.0,1.0,0.0,0.0,0.0,1.0,0.009850531816482544,0.0009867046028375639,0.01058769878000021,1.2184696791468346e-07,0.0,0.0,0.0,1.2184696791468346e-07,0.0,0.0,0.0,1.2184696791468346e-07,1.22583125,-0.1667130499999988,9.7870367,8.999999999999999e-08,0.0,0.0,0.0,8.999999999999999e-08,0.0,0.0,0.0,8.999999999999999e-08
1616766030.5841575,123720,1616766030,589571776,fcu,-0.032269495957880985,0.018529022467546362,-0.9938105770116046,-0.10467039685069957,1.0,0.0,0.0,0.0,1.0,0.0,0.0,0.0,1.0,0.009971660561859608,0.003592209890484811,0.010256403125822544,1.2184696791468346e-07,0.0,0.0,0.0,1.2184696791468346e-07,0.0,0.0,0.0,1.2184696791468346e-07,0.77472535,-0.4609125499999988,9.8654899,8.999999999999999e-08,0.0,0.0,0.0,8.999999999999999e-08,0.0,0.0,0.0,8.999999999999999e-08
1616766030.6264837,123721,1616766030,628571776,fcu,-0.03196303170530347,0.018398486578443243,-0.9938692738849183,-0.10422920283343556,1.0,0.0,0.0,0.0,1.0,0.0,0.0,0.0,1.0,0.010964308865368366,0.011047905310988428,0.013541705906391142,1.2184696791468346e-07,0.0,0.0,0.0,1.2184696791468346e-07,0.0,0.0,0.0,1.2184696791468346e-07,0.2549729,-0.24516624999999878,9.93413645,8.999999999999999e-08,0.0,0.0,0.0,8.999999999999999e-08,0.0,0.0,0.0,8.999999999999999e-08
1616766030.670347,123722,1616766030,668571776,fcu,-0.03172182407446041,0.01849093161864727,-0.9938886277529451,-0.10410190655617835,1.0,0.0,0.0,0.0,1.0,0.0,0.0,0.0,1.0,0.008467888459563255,0.01307417079806328,0.014458453282713888,1.2184696791468346e-07,0.0,0.0,0.0,1.2184696791468346e-07,0.0,0.0,0.0,1.2184696791468346e-07,-0.0196133,0.3432327500000012,9.9439431,8.999999999999999e-08,0.0,0.0,0.0,8.999999999999999e-08,0.0,0.0,0.0,8.999999999999999e-08
1616766030.705705,123723,1616766030,709571776,fcu,-0.031398901845100566,0.018743898150313718,-0.993906141249243,-0.10398729553215708,1.0,0.0,0.0,0.0,1.0,0.0,0.0,0.0,1.0,0.0014915408100932837,0.015247326344251634,0.009498910047113894,1.2184696791468346e-07,0.0,0.0,0.0,1.2184696791468346e-07,0.0,0.0,0.0,1.2184696791468346e-07,0.1176798,0.27458620000000117,9.6889702,8.999999999999999e-08,0.0,0.0,0.0,8.999999999999999e-08,0.0,0.0,0.0,8.999999999999999e-08
1616766030.7445438,123724,1616766030,748571776,fcu,-0.0312139744305467,0.01917939392981215,-0.9939709820885643,-0.10334178929469562,1.0,0.0,0.0,0.0,1.0,0.0,0.0,0.0,1.0,-0.006809926591813564,0.012103654444217684,0.016209714114665985,1.2184696791468346e-07,0.0,0.0,0.0,1.2184696791468346e-07,0.0,0.0,0.0,1.2184696791468346e-07,0.2157463,0.2353596000000012,9.639936950000001,8.999999999999999e-08,0.0,0.0,0.0,8.999999999999999e-08,0.0,0.0,0.0,8.999999999999999e-08
1616766030.7875264,123725,1616766030,789571776,fcu,-0.031226793646466702,0.019895391384271065,-0.9940070821894955,-0.10285417501177824,1.0,0.0,0.0,0.0,1.0,0.0,0.0,0.0,1.0,-0.017043638974428177,0.007126705721020701,0.02430027350783348,1.2184696791468346e-07,0.0,0.0,0.0,1.2184696791468346e-07,0.0,0.0,0.0,1.2184696791468346e-07,0.10787315,0.29419950000000117,9.7281968,8.999999999999999e-08,0.0,0.0,0.0,8.999999999999999e-08,0.0,0.0,0.0,8.999999999999999e-08
1616766030.834905,123726,1616766030,828571776,fcu,-0.031057857144631048,0.020562695106495374,-0.9940285124689427,-0.10256657095916905,1.0,0.0,0.0,0.0,1.0,0.0,0.0,0.0,1.0,-0.025048982352018356,0.0027969367802143127,0.02315199375152588,1.2184696791468346e-07,0.0,0.0,0.0,1.2184696791468346e-07,0.0,0.0,0.0,1.2184696791468346e-07,0.1569064,-0.4412992499999988,9.8262633,8.999999999999999e-08,0.0,0.0,0.0,8.999999999999999e-08,0.0,0.0,0.0,8.999999999999999e-08
1616766030.8671181,123727,1616766030,868571776,fcu,-0.030922885371943827,0.021144520749270715,-0.9940545915480415,-0.10223577370379427,1.0,0.0,0.0,0.0,1.0,0.0,0.0,0.0,1.0,-0.025884617120027542,0.0010299328714609172,0.02047712542116642,1.2184696791468346e-07,0.0,0.0,0.0,1.2184696791468346e-07,0.0,0.0,0.0,1.2184696791468346e-07,0.77472535,-0.6766588499999989,9.639936950000001,8.999999999999999e-08,0.0,0.0,0.0,8.999999999999999e-08,0.0,0.0,0.0,8.999999999999999e-08
1616766030.9061778,123728,1616766030,909571776,fcu,-0.03086869878424338,0.021472850563452668,-0.994092967317048,-0.10180968743117624,1.0,0.0,0.0,0.0,1.0,0.0,0.0,0.0,1.0,-0.021001402288675308,0.004109531641006472,0.018077408894896507,1.2184696791468346e-07,0.0,0.0,0.0,1.2184696791468346e-07,0.0,0.0,0.0,1.2184696791468346e-07,0.8629852,-0.8531785499999988,9.73800345,8.999999999999999e-08,0.0,0.0,0.0,8.999999999999999e-08,0.0,0.0,0.0,8.999999999999999e-08
1616766030.9479418,123729,1616766030,948571776,fcu,-0.030640216665855338,0.021691010335881854,-0.9941582641154105,-0.1011929991862654,1.0,0.0,0.0,0.0,1.0,0.0,0.0,0.0,1.0,-0.010973060503602028,0.004280503839254382,0.023221593350172043,1.2184696791468346e-07,0.0,0.0,0.0,1.2184696791468346e-07,0.0,0.0,0.0,1.2184696791468346e-07,0.196133,-0.7060787999999989,9.5712904,8.999999999999999e-08,0.0,0.0,0.0,8.999999999999999e-08,0.0,0.0,0.0,8.999999999999999e-08
1616766030.9836686,123730,1616766030,989571776,fcu,-0.030829263808170818,0.021851242204865888,-0.9941985783481484,-0.10070385552535155,1.0,0.0,0.0,0.0,1.0,0.0,0.0,0.0,1.0,-0.004243684001266956,0.0009500235319137606,0.02688872441649437,1.2184696791468346e-07,0.0,0.0,0.0,1.2184696791468346e-07,0.0,0.0,0.0,1.2184696791468346e-07,-0.1569064,-0.45110589999999884,9.87529655,8.999999999999999e-08,0.0,0.0,0.0,8.999999999999999e-08,0.0,0.0,0.0,8.999999999999999e-08
1616766031.0225065,123731,1616766031,28571776,fcu,-0.030750580374807084,0.021690692386330687,-0.9942435947047326,-0.10031744643393692,1.0,0.0,0.0,0.0,1.0,0.0,0.0,0.0,1.0,0.0031841660384088755,0.0002104919403791458,0.02474072016775608,1.2184696791468346e-07,0.0,0.0,0.0,1.2184696791468346e-07,0.0,0.0,0.0,1.2184696791468346e-07,0.1176798,-1.0002782999999988,9.8851032,8.999999999999999e-08,0.0,0.0,0.0,8.999999999999999e-08,0.0,0.0,0.0,8.999999999999999e-08
1616766031.068408,123732,1616766031,68571776,fcu,-0.03090654925458638,0.021292211524118906,-0.9942970891191364,-0.09982347174286327,1.0,0.0,0.0,0.0,1.0,0.0,0.0,0.0,1.0,0.014138435013592243,-0.0021734237670898407,0.02337636426091194,1.2184696791468346e-07,0.0,0.0,0.0,1.2184696791468346e-07,0.0,0.0,0.0,1.2184696791468346e-07,0.85317855,-0.6080122999999988,9.69877685,8.999999999999999e-08,0.0,0.0,0.0,8.999999999999999e-08,0.0,0.0,0.0,8.999999999999999e-08
1616766031.1039233,123733,1616766031,109571776,fcu,-0.030970789990043004,0.02083508922794954,-0.9943531982761609,-0.09933995320225386,1.0,0.0,0.0,0.0,1.0,0.0,0.0,0.0,1.0,0.024603763595223427,-0.0022368058562278717,0.023633413016796112,1.2184696791468346e-07,0.0,0.0,0.0,1.2184696791468346e-07,0.0,0.0,0.0,1.2184696791468346e-07,1.12776475,-0.13729309999999878,9.89490985,8.999999999999999e-08,0.0,0.0,0.0,8.999999999999999e-08,0.0,0.0,0.0,8.999999999999999e-08
1616766031.1465697,123734,1616766031,150571776,fcu,-0.030762064568752398,0.020505143640739458,-0.994413998829854,-0.0988637112339979,1.0,0.0,0.0,0.0,1.0,0.0,0.0,0.0,1.0,0.02718743495643139,0.0009859874844551117,0.023927981033921242,1.2184696791468346e-07,0.0,0.0,0.0,1.2184696791468346e-07,0.0,0.0,0.0,1.2184696791468346e-07,0.9022118,0.10787315000000121,9.75761675,8.999999999999999e-08,0.0,0.0,0.0,8.999999999999999e-08,0.0,0.0,0.0,8.999999999999999e-08
1616766031.1837635,123735,1616766031,189571776,fcu,-0.03067508876617776,0.020276704628471816,-0.9944619696002865,-0.09845448287059205,1.0,0.0,0.0,0.0,1.0,0.0,0.0,0.0,1.0,0.022086361423134804,0.004538390785455706,0.022569438442587852,1.2184696791468346e-07,0.0,0.0,0.0,1.2184696791468346e-07,0.0,0.0,0.0,1.2184696791468346e-07,0.2941995,-0.30400614999999875,10.13026945,8.999999999999999e-08,0.0,0.0,0.0,8.999999999999999e-08,0.0,0.0,0.0,8.999999999999999e-08
1616766031.2226129,123736,1616766031,228571776,fcu,-0.030519584395160643,0.020132312927940828,-0.9944650188829054,-0.09850163025422759,1.0,0.0,0.0,0.0,1.0,0.0,0.0,0.0,1.0,0.015033808536827564,0.009007040411233904,0.01548696309328079,1.2184696791468346e-07,0.0,0.0,0.0,1.2184696791468346e-07,0.0,0.0,0.0,1.2184696791468346e-07,0.2353596,0.46091255000000125,10.32640245,8.999999999999999e-08,0.0,0.0,0.0,8.999999999999999e-08,0.0,0.0,0.0,8.999999999999999e-08
1616766031.2653065,123737,1616766031,268571776,fcu,-0.030053254755449038,0.020211863738821792,-0.9944320927596495,-0.09896006938392454,1.0,0.0,0.0,0.0,1.0,0.0,0.0,0.0,1.0,0.006379314232617617,0.014656515792012215,-0.0029491432942450064,1.2184696791468346e-07,0.0,0.0,0.0,1.2184696791468346e-07,0.0,0.0,0.0,1.2184696791468346e-07,0.10787315,-0.5099457999999987,10.5323421,8.999999999999999e-08,0.0,0.0,0.0,8.999999999999999e-08,0.0,0.0,0.0,8.999999999999999e-08
1616766031.3079898,123738,1616766031,308571776,fcu,-0.029538891809199254,0.020010651519347784,-0.994493752335367,-0.09853529450089316,1.0,0.0,0.0,0.0,1.0,0.0,0.0,0.0,1.0,0.0023009853903204203,0.020031334832310677,-0.00515404995530844,1.2184696791468346e-07,0.0,0.0,0.0,1.2184696791468346e-07,0.0,0.0,0.0,1.2184696791468346e-07,0.04903325,-0.4707191999999987,10.0812362,8.999999999999999e-08,0.0,0.0,0.0,8.999999999999999e-08,0.0,0.0,0.0,8.999999999999999e-08
1616766031.343914,123739,1616766031,348571776,fcu,-0.02900471692825874,0.02000422645606599,-0.9945717164094456,-0.09790637485973669,1.0,0.0,0.0,0.0,1.0,0.0,0.0,0.0,1.0,0.0042847455479204655,0.027721239253878597,0.014977773651480671,1.2184696791468346e-07,0.0,0.0,0.0,1.2184696791468346e-07,0.0,0.0,0.0,1.2184696791468346e-07,-0.22555295,0.8629852000000011,9.5320638,8.999999999999999e-08,0.0,0.0,0.0,8.999999999999999e-08,0.0,0.0,0.0,8.999999999999999e-08
1616766031.3827937,123740,1616766031,389571776,fcu,-0.02885473647998289,0.02047163763427772,-0.9945641209242593,-0.09793122895888295,1.0,0.0,0.0,0.0,1.0,0.0,0.0,0.0,1.0,-0.006683037616312504,0.020482480525970462,0.018064687028527256,1.2184696791468346e-07,0.0,0.0,0.0,1.2184696791468346e-07,0.0,0.0,0.0,1.2184696791468346e-07,-0.2745862,0.1372931000000011,9.14960445,8.999999999999999e-08,0.0,0.0,0.0,8.999999999999999e-08,0.0,0.0,0.0,8.999999999999999e-08
1616766031.4232967,123741,1616766031,428571776,fcu,-0.029112837946279738,0.02085993671811044,-0.9945618396612881,-0.09779597535882789,1.0,0.0,0.0,0.0,1.0,0.0,0.0,0.0,1.0,-0.017233997583389282,0.00696692243218422,0.010113498196005821,1.2184696791468346e-07,0.0,0.0,0.0,1.2184696791468346e-07,0.0,0.0,0.0,1.2184696791468346e-07,-0.57859235,-0.6276255999999989,9.3359308,8.999999999999999e-08,0.0,0.0,0.0,8.999999999999999e-08,0.0,0.0,0.0,8.999999999999999e-08
1616766031.4641268,123742,1616766031,468571776,fcu,-0.029229856831341893,0.021085114614229315,-0.9945716903628692,-0.09761242820496346,1.0,0.0,0.0,0.0,1.0,0.0,0.0,0.0,1.0,-0.016639469191432,-0.009209978394210337,0.00918435212224722,1.2184696791468346e-07,0.0,0.0,0.0,1.2184696791468346e-07,0.0,0.0,0.0,1.2184696791468346e-07,-0.1765197,-0.12748644999999886,9.38496405,8.999999999999999e-08,0.0,0.0,0.0,8.999999999999999e-08,0.0,0.0,0.0,8.999999999999999e-08
1616766031.503605,123743,1616766031,509571776,fcu,-0.030055850174844547,0.02152813246913634,-0.9945407158078061,-0.09758047951898607,1.0,0.0,0.0,0.0,1.0,0.0,0.0,0.0,1.0,-0.016679994761943817,-0.02474261075258255,0.006815527565777304,1.2184696791468346e-07,0.0,0.0,0.0,1.2184696791468346e-07,0.0,0.0,0.0,1.2184696791468346e-07,0.44129925000000003,-0.37265269999999884,9.8654899,8.999999999999999e-08,0.0,0.0,0.0,8.999999999999999e-08,0.0,0.0,0.0,8.999999999999999e-08
1616766031.5433486,123744,1616766031,548571776,fcu,-0.030323537826367777,0.021852886329799655,-0.9944692403520327,-0.09815225115299636,1.0,0.0,0.0,0.0,1.0,0.0,0.0,0.0,1.0,-0.017776573076844215,-0.025933340191841125,-0.0052110399119555915,1.2184696791468346e-07,0.0,0.0,0.0,1.2184696791468346e-07,0.0,0.0,0.0,1.2184696791468346e-07,0.9414384,-0.5099457999999988,10.1008495,8.999999999999999e-08,0.0,0.0,0.0,8.999999999999999e-08,0.0,0.0,0.0,8.999999999999999e-08
1616766031.5834565,123745,1616766031,589571776,fcu,-0.029999070174430917,0.021853924706814985,-0.9944073834344634,-0.0988757681871662,1.0,0.0,0.0,0.0,1.0,0.0,0.0,0.0,1.0,-0.015419743955135345,-0.013553049415349964,-0.023945463821291924,1.2184696791468346e-07,0.0,0.0,0.0,1.2184696791468346e-07,0.0,0.0,0.0,1.2184696791468346e-07,1.52003075,-1.431770899999999,9.8851032,8.999999999999999e-08,0.0,0.0,0.0,8.999999999999999e-08,0.0,0.0,0.0,8.999999999999999e-08
1616766031.6258006,123746,1616766031,628571776,fcu,-0.030196775120826677,0.021150212846138515,-0.9944634081115644,-0.09840403038492468,1.0,0.0,0.0,0.0,1.0,0.0,0.0,0.0,1.0,0.0023824346717447042,-0.0018768515437841437,-0.016908619552850723,1.2184696791468346e-07,0.0,0.0,0.0,1.2184696791468346e-07,0.0,0.0,0.0,1.2184696791468346e-07,1.71616375,-1.353317699999999,9.6693569,8.999999999999999e-08,0.0,0.0,0.0,8.999999999999999e-08,0.0,0.0,0.0,8.999999999999999e-08
1616766031.6644435,123747,1616766031,668571776,fcu,-0.02990908313379373,0.0206942596226566,-0.9945056390003061,-0.09816174591641463,1.0,0.0,0.0,0.0,1.0,0.0,0.0,0.0,1.0,0.02095166966319084,0.010126810520887375,0.005594876594841479,1.2184696791468346e-07,0.0,0.0,0.0,1.2184696791468346e-07,0.0,0.0,0.0,1.2184696791468346e-07,0.77472535,0.8727918500000013,9.8262633,8.999999999999999e-08,0.0,0.0,0.0,8.999999999999999e-08,0.0,0.0,0.0,8.999999999999999e-08
1616766031.7151701,123748,1616766031,709571776,fcu,-0.029780159599524028,0.020672953513966644,-0.9944569530603076,-0.09869721169944684,1.0,0.0,0.0,0.0,1.0,0.0,0.0,0.0,1.0,0.015389655716717243,0.00860673375427723,0.0007890844717621792,1.2184696791468346e-07,0.0,0.0,0.0,1.2184696791468346e-07,0.0,0.0,0.0,1.2184696791468346e-07,-0.2353596,-0.019613299999998817,9.6693569,8.999999999999999e-08,0.0,0.0,0.0,8.999999999999999e-08,0.0,0.0,0.0,8.999999999999999e-08
1616766031.7494798,123749,1616766031,748571776,fcu,-0.029737175750649502,0.020263472133386307,-0.9944392508981806,-0.09897306880429518,1.0,0.0,0.0,0.0,1.0,0.0,0.0,0.0,1.0,0.009045095182955265,0.012330871075391768,-0.010856188833713533,1.2184696791468346e-07,0.0,0.0,0.0,1.2184696791468346e-07,0.0,0.0,0.0,1.2184696791468346e-07,-0.24516625,-0.9022117999999988,9.9635564,8.999999999999999e-08,0.0,0.0,0.0,8.999999999999999e-08,0.0,0.0,0.0,8.999999999999999e-08
1616766031.7840917,123750,1616766031,789571776,fcu,-0.029417070970648416,0.01984808269391422,-0.9944377533932309,-0.09916775773963621,1.0,0.0,0.0,0.0,1.0,0.0,0.0,0.0,1.0,0.012501935474574566,0.010633252561092375,-0.012835719622671606,1.2184696791468346e-07,0.0,0.0,0.0,1.2184696791468346e-07,0.0,0.0,0.0,1.2184696791468346e-07,0.9610517000000001,-0.01961329999999882,9.6301303,8.999999999999999e-08,0.0,0.0,0.0,8.999999999999999e-08,0.0,0.0,0.0,8.999999999999999e-08
1616766031.8258116,123751,1616766031,828571776,fcu,-0.02965240079864747,0.01971387648713523,-0.9944293421852823,-0.09920877784587784,1.0,0.0,0.0,0.0,1.0,0.0,0.0,0.0,1.0,0.011599080637097359,0.005449853837490081,-0.009964091703295708,1.2184696791468346e-07,0.0,0.0,0.0,1.2184696791468346e-07,0.0,0.0,0.0,1.2184696791468346e-07,1.2748645,0.1274864500000012,9.8458766,8.999999999999999e-08,0.0,0.0,0.0,8.999999999999999e-08,0.0,0.0,0.0,8.999999999999999e-08
1616766031.8646898,123752,1616766031,868571776,fcu,-0.029427430861931968,0.019785544770112084,-0.9944156091925285,-0.09939896742556648,1.0,0.0,0.0,0.0,1.0,0.0,0.0,0.0,1.0,0.003805584739893675,0.003209644928574561,-0.005715774372220039,1.2184696791468346e-07,0.0,0.0,0.0,1.2184696791468346e-07,0.0,0.0,0.0,1.2184696791468346e-07,0.83356525,0.3040061500000012,9.95374975,8.999999999999999e-08,0.0,0.0,0.0,8.999999999999999e-08,0.0,0.0,0.0,8.999999999999999e-08
1616766031.9034038,123753,1616766031,909571776,fcu,-0.02933923182971178,0.019957403951728393,-0.9943726866192245,-0.0998191945910974,1.0,0.0,0.0,0.0,1.0,0.0,0.0,0.0,1.0,-0.006828870624303818,0.004091665148735045,-0.011121098883450031,1.2184696791468346e-07,0.0,0.0,0.0,1.2184696791468346e-07,0.0,0.0,0.0,1.2184696791468346e-07,0.20593965,-0.41187929999999884,9.89490985,8.999999999999999e-08,0.0,0.0,0.0,8.999999999999999e-08,0.0,0.0,0.0,8.999999999999999e-08
1616766031.9425223,123754,1616766031,948571776,fcu,-0.029201773126748983,0.019914375961929062,-0.9943615605766605,-0.09997880237254664,1.0,0.0,0.0,0.0,1.0,0.0,0.0,0.0,1.0,-0.008444026112556458,0.006614651530981062,-0.012584074400365353,1.2184696791468346e-07,0.0,0.0,0.0,1.2184696791468346e-07,0.0,0.0,0.0,1.2184696791468346e-07,0.0784532,-0.7158854499999987,9.77723005,8.999999999999999e-08,0.0,0.0,0.0,8.999999999999999e-08,0.0,0.0,0.0,8.999999999999999e-08
1616766031.985989,123755,1616766031,989571776,fcu,-0.02931533547833996,0.01977989115330825,-0.9943504928439406,-0.10008228810717834,1.0,0.0,0.0,0.0,1.0,0.0,0.0,0.0,1.0,-0.002154882298782468,0.0035171080380678164,-0.009030960500240326,1.2184696791468346e-07,0.0,0.0,0.0,1.2184696791468346e-07,0.0,0.0,0.0,1.2184696791468346e-07,0.38245935,-0.2255529499999988,9.75761675,8.999999999999999e-08,0.0,0.0,0.0,8.999999999999999e-08,0.0,0.0,0.0,8.999999999999999e-08
1616766032.02505,123756,1616766032,28571776,fcu,-0.029413703895872015,0.019617243776229087,-0.9943349320644947,-0.10023991543315769,1.0,0.0,0.0,0.0,1.0,0.0,0.0,0.0,1.0,0.004058155231177807,-0.0005108118057250985,-0.006860680412501097,1.2184696791468346e-07,0.0,0.0,0.0,1.2184696791468346e-07,0.0,0.0,0.0,1.2184696791468346e-07,0.7060788,-0.5197524499999988,9.6693569,8.999999999999999e-08,0.0,0.0,0.0,8.999999999999999e-08,0.0,0.0,0.0,8.999999999999999e-08
1616766032.0702102,123757,1616766032,68571776,fcu,-0.029613817500824265,0.019369855596521837,-0.9943175336808683,-0.10040155736836448,1.0,0.0,0.0,0.0,1.0,0.0,0.0,0.0,1.0,0.00897251907736063,-0.003427291288971902,-0.0068107834085822105,1.2184696791468346e-07,0.0,0.0,0.0,1.2184696791468346e-07,0.0,0.0,0.0,1.2184696791468346e-07,0.63743225,-0.7453053999999989,9.4732239,8.999999999999999e-08,0.0,0.0,0.0,8.999999999999999e-08,0.0,0.0,0.0,8.999999999999999e-08
1616766032.1037726,123758,1616766032,109571776,fcu,-0.03010530381234436,0.01916524691810067,-0.9942928498574055,-0.10053901091304573,1.0,0.0,0.0,0.0,1.0,0.0,0.0,0.0,1.0,0.013272013515233994,-0.011675143614411356,-0.007621720433235167,1.2184696791468346e-07,0.0,0.0,0.0,1.2184696791468346e-07,0.0,0.0,0.0,1.2184696791468346e-07,-0.04903325,-1.029698249999999,9.2574776,8.999999999999999e-08,0.0,0.0,0.0,8.999999999999999e-08,0.0,0.0,0.0,8.999999999999999e-08
1616766032.1458142,123759,1616766032,148571776,fcu,-0.03076883640307341,0.018676810723517342,-0.9942628825272343,-0.10072624224219767,1.0,0.0,0.0,0.0,1.0,0.0,0.0,0.0,1.0,0.01877928525209427,-0.022133443504571915,-0.0064607430249452565,1.2184696791468346e-07,0.0,0.0,0.0,1.2184696791468346e-07,0.0,0.0,0.0,1.2184696791468346e-07,-0.0784532,0.48052585000000114,9.3163175,8.999999999999999e-08,0.0,0.0,0.0,8.999999999999999e-08,0.0,0.0,0.0,8.999999999999999e-08
1616766032.1841354,123760,1616766032,188571776,fcu,-0.031235599748657035,0.01874625737846945,-0.9941137502984827,-0.10203316426597636,1.0,0.0,0.0,0.0,1.0,0.0,0.0,0.0,1.0,0.017469093203544617,-0.025779670104384426,-0.026013797149062153,1.2184696791468346e-07,0.0,0.0,0.0,1.2184696791468346e-07,0.0,0.0,0.0,1.2184696791468346e-07,1.176798,0.7060788000000012,9.93413645,8.999999999999999e-08,0.0,0.0,0.0,8.999999999999999e-08,0.0,0.0,0.0,8.999999999999999e-08
1616766032.222255,123761,1616766032,228571776,fcu,-0.031185829044378128,0.018938832977448018,-0.9940193422004464,-0.10292867435102199,1.0,0.0,0.0,0.0,1.0,0.0,0.0,0.0,1.0,0.0039956411346793175,-0.018604205921292312,-0.04672335833311081,1.2184696791468346e-07,0.0,0.0,0.0,1.2184696791468346e-07,0.0,0.0,0.0,1.2184696791468346e-07,2.24572285,-0.18632634999999872,10.52253545,8.999999999999999e-08,0.0,0.0,0.0,8.999999999999999e-08,0.0,0.0,0.0,8.999999999999999e-08
1616766032.2628288,123762,1616766032,268571776,fcu,-0.03020075089240991,0.01890489527657419,-0.9940420232406448,-0.10300958990192022,1.0,0.0,0.0,0.0,1.0,0.0,0.0,0.0,1.0,-0.002055188175290823,0.010078046470880505,-0.034746717661619186,1.2184696791468346e-07,0.0,0.0,0.0,1.2184696791468346e-07,0.0,0.0,0.0,1.2184696791468346e-07,2.7850886,-0.3236194499999987,11.0226746,8.999999999999999e-08,0.0,0.0,0.0,8.999999999999999e-08,0.0,0.0,0.0,8.999999999999999e-08
1616766032.3035262,123763,1616766032,309571776,fcu,-0.027593964954568086,0.019341094989511406,-0.9940305922981694,-0.10376741645643556,1.0,0.0,0.0,0.0,1.0,0.0,0.0,0.0,1.0,-0.011034157127141953,0.06749607622623444,-0.024303868412971504,1.2184696791468346e-07,0.0,0.0,0.0,1.2184696791468346e-07,0.0,0.0,0.0,1.2184696791468346e-07,2.81450855,0.7453054000000012,10.0223963,8.999999999999999e-08,0.0,0.0,0.0,8.999999999999999e-08,0.0,0.0,0.0,8.999999999999999e-08
1616766032.344225,123764,1616766032,348571776,fcu,-0.027246373518456643,0.020199537820033406,-0.9939296137552447,-0.10465914533522513,1.0,0.0,0.0,0.0,1.0,0.0,0.0,0.0,1.0,-0.029718266800045967,0.07927050441503525,-0.032371670007705695,1.2184696791468346e-07,0.0,0.0,0.0,1.2184696791468346e-07,0.0,0.0,0.0,1.2184696791468346e-07,-0.30400615,-1.1081514499999987,9.69877685,8.999999999999999e-08,0.0,0.0,0.0,8.999999999999999e-08,0.0,0.0,0.0,8.999999999999999e-08
1616766032.386883,123765,1616766032,389571776,fcu,-0.026265736988148547,0.020269200028895748,-0.9939443989446903,-0.10475591819623553,1.0,0.0,0.0,0.0,1.0,0.0,0.0,0.0,1.0,-0.03032088465988636,0.060873132199048996,-0.026565482839941985,1.2184696791468346e-07,0.0,0.0,0.0,1.2184696791468346e-07,0.0,0.0,0.0,1.2184696791468346e-07,-3.8834334,-0.6276255999999988,10.34601575,8.999999999999999e-08,0.0,0.0,0.0,8.999999999999999e-08,0.0,0.0,0.0,8.999999999999999e-08
1616766032.4234893,123766,1616766032,428571776,fcu,-0.026217092785477125,0.020575831383012465,-0.9938782376873965,-0.10533445713616474,1.0,0.0,0.0,0.0,1.0,0.0,0.0,0.0,1.0,-0.018407320603728294,0.034575894474983215,-0.01789793744683266,1.2184696791468346e-07,0.0,0.0,0.0,1.2184696791468346e-07,0.0,0.0,0.0,1.2184696791468346e-07,-2.0790098,1.5200307500000012,9.6301303,8.999999999999999e-08,0.0,0.0,0.0,8.999999999999999e-08,0.0,0.0,0.0,8.999999999999999e-08
1616766032.4621763,123767,1616766032,468571776,fcu,-0.025679128194935688,0.02151813591869829,-0.9937524210370153,-0.10645974772092659,1.0,0.0,0.0,0.0,1.0,0.0,0.0,0.0,1.0,-0.026881946250796318,0.027784947305917736,-0.03307248651981354,1.2184696791468346e-07,0.0,0.0,0.0,1.2184696791468346e-07,0.0,0.0,0.0,1.2184696791468346e-07,0.9218251,0.009806650000001112,9.09076455,8.999999999999999e-08,0.0,0.0,0.0,8.999999999999999e-08,0.0,0.0,0.0,8.999999999999999e-08
1616766032.5060391,123768,1616766032,509571776,fcu,-0.025673548748911475,0.022374952394529943,-0.9936554773172408,-0.1071868592572151,1.0,0.0,0.0,0.0,1.0,0.0,0.0,0.0,1.0,-0.0386173389852047,0.010869080200791354,-0.040489304810762405,1.2184696791468346e-07,0.0,0.0,0.0,1.2184696791468346e-07,0.0,0.0,0.0,1.2184696791468346e-07,2.83412185,-1.882876799999999,9.1986377,8.999999999999999e-08,0.0,0.0,0.0,8.999999999999999e-08,0.0,0.0,0.0,8.999999999999999e-08
1616766032.5433276,123769,1616766032,548571776,fcu,-0.025871708184132685,0.022890337277946017,-0.9935767032241619,-0.10775909235485731,1.0,0.0,0.0,0.0,1.0,0.0,0.0,0.0,1.0,-0.03693760186433792,0.0031193140894174532,-0.0355784073472023,1.2184696791468346e-07,0.0,0.0,0.0,1.2184696791468346e-07,0.0,0.0,0.0,1.2184696791468346e-07,0.9610517000000001,-1.520030749999999,10.1008495,8.999999999999999e-08,0.0,0.0,0.0,8.999999999999999e-08,0.0,0.0,0.0,8.999999999999999e-08
1616766032.5867224,123770,1616766032,589571776,fcu,-0.025512001776867518,0.022987528790313686,-0.993469503976645,-0.10880742600507814,1.0,0.0,0.0,0.0,1.0,0.0,0.0,0.0,1.0,-0.02586427889764309,-0.0018385928124189422,-0.037237074226140976,1.2184696791468346e-07,0.0,0.0,0.0,1.2184696791468346e-07,0.0,0.0,0.0,1.2184696791468346e-07,-1.2160246,-1.284671149999999,10.0812362,8.999999999999999e-08,0.0,0.0,0.0,8.999999999999999e-08,0.0,0.0,0.0,8.999999999999999e-08
1616766032.6257277,123771,1616766032,628571776,fcu,-0.02566986121409194,0.02241763509636447,-0.9933434173196878,-0.11003346368073885,1.0,0.0,0.0,0.0,1.0,0.0,0.0,0.0,1.0,-0.0018711208831518888,0.007521081715822214,-0.04890364781022072,1.2184696791468346e-07,0.0,0.0,0.0,1.2184696791468346e-07,0.0,0.0,0.0,1.2184696791468346e-07,-1.569064,-1.2062179499999988,10.091042850000001,8.999999999999999e-08,0.0,0.0,0.0,8.999999999999999e-08,0.0,0.0,0.0,8.999999999999999e-08
1616766032.6632142,123772,1616766032,668571776,fcu,-0.025781399854202015,0.02156870246173077,-0.9932442836213724,-0.11106711281536868,1.0,0.0,0.0,0.0,1.0,0.0,0.0,0.0,1.0,0.02472875826060772,0.0035863257944583823,-0.05566415563225746,1.2184696791468346e-07,0.0,0.0,0.0,1.2184696791468346e-07,0.0,0.0,0.0,1.2184696791468346e-07,-0.20593965,-0.9120184499999989,9.4732239,8.999999999999999e-08,0.0,0.0,0.0,8.999999999999999e-08,0.0,0.0,0.0,8.999999999999999e-08
1616766032.7044,123773,1616766032,709538752,fcu,-0.026443304242308244,0.020789232449030866,-0.9931546491474839,-0.11185885012669916,1.0,0.0,0.0,0.0,1.0,0.0,0.0,0.0,1.0,0.04115470498800278,-0.007010076195001608,-0.05174580216407776,1.2184696791468346e-07,0.0,0.0,0.0,1.2184696791468346e-07,0.0,0.0,0.0,1.2184696791468346e-07,1.3925443,-0.45110589999999884,9.4732239,8.999999999999999e-08,0.0,0.0,0.0,8.999999999999999e-08,0.0,0.0,0.0,8.999999999999999e-08
1616766032.742812,123774,1616766032,748538752,fcu,-0.026656772921732592,0.020109424203404405,-0.9930807740203277,-0.11258598397133546,1.0,0.0,0.0,0.0,1.0,0.0,0.0,0.0,1.0,0.044628892093896866,-0.012397756800055509,-0.04348444938659668,1.2184696791468346e-07,0.0,0.0,0.0,1.2184696791468346e-07,0.0,0.0,0.0,1.2184696791468346e-07,1.40235095,0.25497290000000117,9.6497436,8.999999999999999e-08,0.0,0.0,0.0,8.999999999999999e-08,0.0,0.0,0.0,8.999999999999999e-08
1616766032.784455,123775,1616766032,789538752,fcu,-0.026749860716372174,0.019666528840035537,-0.9929681252345948,-0.11363087108322562,1.0,0.0,0.0,0.0,1.0,0.0,0.0,0.0,1.0,0.03582100570201874,-0.00984488800168038,-0.042255938053131104,1.2184696791468346e-07,0.0,0.0,0.0,1.2184696791468346e-07,0.0,0.0,0.0,1.2184696791468346e-07,0.6472389000000001,0.029419950000001208,9.85568325,8.999999999999999e-08,0.0,0.0,0.0,8.999999999999999e-08,0.0,0.0,0.0,8.999999999999999e-08
