Time,header.seq,header.stamp.secs,header.stamp.nsecs,header.frame_id,orientation.x,orientation.y,orientation.z,orientation.w,orientation_covariance_0,orientation_covariance_1,orientation_covariance_2,orientation_covariance_3,orientation_covariance_4,orientation_covariance_5,orientation_covariance_6,orientation_covariance_7,orientation_covariance_8,angular_velocity.x,angular_velocity.y,angular_velocity.z,angular_velocity_covariance_0,angular_velocity_covariance_1,angular_velocity_covariance_2,angular_velocity_covariance_3,angular_velocity_covariance_4,angular_velocity_covariance_5,angular_velocity_covariance_6,angular_velocity_covariance_7,angular_velocity_covariance_8,linear_acceleration.x,linear_acceleration.y,linear_acceleration.z,linear_acceleration_covariance_0,linear_acceleration_covariance_1,linear_acceleration_covariance_2,linear_acceleration_covariance_3,linear_acceleration_covariance_4,linear_acceleration_covariance_5,linear_acceleration_covariance_6,linear_acceleration_covariance_7,linear_acceleration_covariance_8
1616761551,11695,1616761549,749452672,fcu,-0.028768955,0.020188195,-0.986944485,-0.157179413,1,0,0,0,1,0,0,0,1,0.001369239,0.003280692,-0.003239267,1.22E-07,0,0,0,1.22E-07,0,0,0,1.22E-07,0.42168595,-0.2157463,9.8851032,9.00E-08,0,0,0,9.00E-08,0,0,0,9.00E-08
1616761551,11696,1616761549,789452672,fcu,-0.028797252,0.020229031,-0.986932499,-0.157244226,1,0,0,0,1,0,0,0,1,-0.000466197,0.002388213,-0.003292796,1.22E-07,0,0,0,1.22E-07,0,0,0,1.22E-07,0.4118793,-0.2941995,9.87529655,9.00E-08,0,0,0,9.00E-08,0,0,0,9.00E-08
1616761551,11697,1616761549,830452672,fcu,-0.028795508,0.020233018,-0.986932104,-0.157246511,1,0,0,0,1,0,0,0,1,-0.001835544,0.002452841,-0.002718871,1.22E-07,0,0,0,1.22E-07,0,0,0,1.22E-07,0.4118793,-0.30400615,9.89490985,9.00E-08,0,0,0,9.00E-08,0,0,0,9.00E-08
1616761551,11698,1616761549,869452672,fcu,-0.028740509,0.020202095,-0.986932956,-0.157255203,1,0,0,0,1,0,0,0,1,-0.00163346,0.004359301,-0.001778475,1.22E-07,0,0,0,1.22E-07,0,0,0,1.22E-07,0.4118793,-0.2941995,9.87529655,9.00E-08,0,0,0,9.00E-08,0,0,0,9.00E-08
1616761551,11699,1616761549,909452672,fcu,-0.028744595,0.020114528,-0.986926413,-0.157306734,1,0,0,0,1,0,0,0,1,0.00020631,0.005040845,-0.002077841,1.22E-07,0,0,0,1.22E-07,0,0,0,1.22E-07,0.40207265,-0.26477955,9.8851032,9.00E-08,0,0,0,9.00E-08,0,0,0,9.00E-08
1616761551,11700,1616761549,949452672,fcu,-0.028723184,0.020064384,-0.986931792,-0.157283303,1,0,0,0,1,0,0,0,1,0.001330691,0.005226405,-0.001748894,1.22E-07,0,0,0,1.22E-07,0,0,0,1.22E-07,0.4314926,-0.2353596,9.87529655,9.00E-08,0,0,0,9.00E-08,0,0,0,9.00E-08
1616761551,11701,1616761549,989452672,fcu,-0.028807746,0.020062651,-0.986930298,-0.15727743,1,0,0,0,1,0,0,0,1,0.000236643,0.004022511,-0.000580793,1.22E-07,0,0,0,1.22E-07,0,0,0,1.22E-07,0.4511059,-0.24516625,9.85568325,9.00E-08,0,0,0,9.00E-08,0,0,0,9.00E-08
1616761551,11702,1616761550,29452672,fcu,-0.028798075,0.020069094,-0.986930999,-0.157273984,1,0,0,0,1,0,0,0,1,-0.000161385,0.00266994,-0.000487654,1.22E-07,0,0,0,1.22E-07,0,0,0,1.22E-07,0.4511059,-0.24516625,9.85568325,9.00E-08,0,0,0,9.00E-08,0,0,0,9.00E-08
1616761551,11703,1616761550,69449600,fcu,-0.028829678,0.020035988,-0.9869248,-0.157311311,1,0,0,0,1,0,0,0,1,-0.000644966,0.002654487,-0.001276786,1.22E-07,0,0,0,1.22E-07,0,0,0,1.22E-07,0.44129925,-0.2353596,9.8654899,9.00E-08,0,0,0,9.00E-08,0,0,0,9.00E-08
1616761551,11704,1616761550,109449600,fcu,-0.028858665,0.020043491,-0.986926268,-0.157295825,1,0,0,0,1,0,0,0,1,-0.001084466,0.002944417,-0.00104423,1.22E-07,0,0,0,1.22E-07,0,0,0,1.22E-07,0.38245935,-0.22555295,9.9047165,9.00E-08,0,0,0,9.00E-08,0,0,0,9.00E-08
1616761551,11705,1616761550,149449600,fcu,-0.028873798,0.019998601,-0.986916135,-0.157362329,1,0,0,0,1,0,0,0,1,-0.000508802,0.002718734,-0.002046893,1.22E-07,0,0,0,1.22E-07,0,0,0,1.22E-07,0.40207265,-0.196133,9.8851032,9.00E-08,0,0,0,9.00E-08,0,0,0,9.00E-08
1616761551,11706,1616761550,189449600,fcu,-0.028872891,0.020043355,-0.986916623,-0.157353738,1,0,0,0,1,0,0,0,1,-0.00101514,0.003502801,-0.001965445,1.22E-07,0,0,0,1.22E-07,0,0,0,1.22E-07,0.40207265,-0.2353596,9.8654899,9.00E-08,0,0,0,9.00E-08,0,0,0,9.00E-08
1616761551,11707,1616761550,229449600,fcu,-0.028870879,0.020017574,-0.986919908,-0.157336786,1,0,0,0,1,0,0,0,1,-0.001432103,0.004504306,-0.001199347,1.22E-07,0,0,0,1.22E-07,0,0,0,1.22E-07,0.40207265,-0.3334261,9.8851032,9.00E-08,0,0,0,9.00E-08,0,0,0,9.00E-08
1616761551,11708,1616761550,269446272,fcu,-0.028880338,0.019926865,-0.986918305,-0.157356618,1,0,0,0,1,0,0,0,1,0.000328949,0.004632108,-0.000912852,1.22E-07,0,0,0,1.22E-07,0,0,0,1.22E-07,0.40207265,-0.34323275,9.8458766,9.00E-08,0,0,0,9.00E-08,0,0,0,9.00E-08
1616761551,11709,1616761550,310446272,fcu,-0.028846016,0.019866608,-0.986923785,-0.157336165,1,0,0,0,1,0,0,0,1,0.002093344,0.00533062,-0.001224782,1.22E-07,0,0,0,1.22E-07,0,0,0,1.22E-07,0.36284605,-0.36284605,9.8851032,9.00E-08,0,0,0,9.00E-08,0,0,0,9.00E-08
1616761551,11710,1616761550,350446272,fcu,-0.028855245,0.019805008,-0.986922548,-0.157349996,1,0,0,0,1,0,0,0,1,0.002251087,0.005154468,-0.00101683,1.22E-07,0,0,0,1.22E-07,0,0,0,1.22E-07,0.3726527,-0.32361945,9.89490985,9.00E-08,0,0,0,9.00E-08,0,0,0,9.00E-08
1616761551,11711,1616761550,389447040,fcu,-0.028912712,0.019670589,-0.986926382,-0.157332259,1,0,0,0,1,0,0,0,1,0.003065341,0.004049746,-0.000427944,1.22E-07,0,0,0,1.22E-07,0,0,0,1.22E-07,0.40207265,-0.24516625,9.9047165,9.00E-08,0,0,0,9.00E-08,0,0,0,9.00E-08
1616761551,11712,1616761550,429447040,fcu,-0.028969417,0.019555082,-0.986925022,-0.157344758,1,0,0,0,1,0,0,0,1,0.005015736,0.002814043,-0.000912333,1.22E-07,0,0,0,1.22E-07,0,0,0,1.22E-07,0.392266,-0.14709975,9.8851032,9.00E-08,0,0,0,9.00E-08,0,0,0,9.00E-08
1616761551,11713,1616761550,469443968,fcu,-0.028995549,0.019465332,-0.986923244,-0.157362224,1,0,0,0,1,0,0,0,1,0.005085453,0.002109442,-0.001286132,1.22E-07,0,0,0,1.22E-07,0,0,0,1.22E-07,0.40207265,1.21E-15,9.87529655,9.00E-08,0,0,0,9.00E-08,0,0,0,9.00E-08
1616761551,11714,1616761550,509443968,fcu,-0.028982743,0.019566023,-0.986924407,-0.157344802,1,0,0,0,1,0,0,0,1,0.001291187,0.002466748,-0.001205932,1.22E-07,0,0,0,1.22E-07,0,0,0,1.22E-07,0.392266,-0.00980665,9.8458766,9.00E-08,0,0,0,9.00E-08,0,0,0,9.00E-08
1616761551,11715,1616761550,550443968,fcu,-0.028913357,0.01974171,-0.98693308,-0.157281208,1,0,0,0,1,0,0,0,1,-0.005168785,0.004051171,0.000181585,1.22E-07,0,0,0,1.22E-07,0,0,0,1.22E-07,0.4314926,-0.04903325,9.8458766,9.00E-08,0,0,0,9.00E-08,0,0,0,9.00E-08
1616761551,11716,1616761550,589443968,fcu,-0.028950489,0.019844931,-0.986934827,-0.157250421,1,0,0,0,1,0,0,0,1,-0.007822958,0.003347035,0.001764735,1.22E-07,0,0,0,1.22E-07,0,0,0,1.22E-07,0.50013915,-0.3530394,9.9635564,9.00E-08,0,0,0,9.00E-08,0,0,0,9.00E-08
1616761551,11717,1616761550,629443968,fcu,-0.028937435,0.019907899,-0.986924067,-0.157312383,1,0,0,0,1,0,0,0,1,-0.007658361,0.003615847,-0.00017336,1.22E-07,0,0,0,1.22E-07,0,0,0,1.22E-07,0.53936575,-0.6276256,9.9831697,9.00E-08,0,0,0,9.00E-08,0,0,0,9.00E-08
1616761551,11718,1616761550,669440128,fcu,-0.028938962,0.019874354,-0.986920314,-0.157339887,1,0,0,0,1,0,0,0,1,-0.004131172,0.003707241,-0.002043195,1.22E-07,0,0,0,1.22E-07,0,0,0,1.22E-07,0.48052585,-0.38245935,9.85568325,9.00E-08,0,0,0,9.00E-08,0,0,0,9.00E-08
1616761551,11719,1616761550,709440128,fcu,-0.028901287,0.019833628,-0.986922249,-0.157339814,1,0,0,0,1,0,0,0,1,-0.001227519,0.004078511,-0.001935704,1.22E-07,0,0,0,1.22E-07,0,0,0,1.22E-07,0.3726527,-0.28439285,9.8262633,9.00E-08,0,0,0,9.00E-08,0,0,0,9.00E-08
1616761551,11720,1616761550,749440128,fcu,-0.028890352,0.019771114,-0.986928153,-0.157312658,1,0,0,0,1,0,0,0,1,0.000908787,0.005506901,-0.000728383,1.22E-07,0,0,0,1.22E-07,0,0,0,1.22E-07,0.2941995,-0.18632635,9.8262633,9.00E-08,0,0,0,9.00E-08,0,0,0,9.00E-08
1616761551,11721,1616761550,789440128,fcu,-0.028907803,0.019795087,-0.986930208,-0.157293544,1,0,0,0,1,0,0,0,1,0.000563837,0.004655713,-0.000209739,1.22E-07,0,0,0,1.22E-07,0,0,0,1.22E-07,0.26477955,-0.1569064,9.87529655,9.00E-08,0,0,0,9.00E-08,0,0,0,9.00E-08
1616761551,11722,1616761550,829440128,fcu,-0.028902079,0.019774485,-0.986943854,-0.157211542,1,0,0,0,1,0,0,0,1,4.05E-05,0.004156549,0.000990644,1.22E-07,0,0,0,1.22E-07,0,0,0,1.22E-07,0.3334261,-0.16671305,9.95374975,9.00E-08,0,0,0,9.00E-08,0,0,0,9.00E-08
1616761551,11723,1616761550,869437312,fcu,-0.028854043,0.019825846,-0.986938545,-0.157247222,1,0,0,0,1,0,0,0,1,-0.001524212,0.00413123,0.001062486,1.22E-07,0,0,0,1.22E-07,0,0,0,1.22E-07,0.51975245,-0.0980665,9.93413645,9.00E-08,0,0,0,9.00E-08,0,0,0,9.00E-08
1616761551,11724,1616761550,909437312,fcu,-0.028897097,0.019893307,-0.98692636,-0.157307262,1,0,0,0,1,0,0,0,1,-0.003360368,0.00334044,-0.001020439,1.22E-07,0,0,0,1.22E-07,0,0,0,1.22E-07,0.65704555,-0.16671305,9.8458766,9.00E-08,0,0,0,9.00E-08,0,0,0,9.00E-08
1616761551,11725,1616761550,949437312,fcu,-0.028906346,0.020055247,-0.986915972,-0.157350165,1,0,0,0,1,0,0,0,1,-0.005427441,0.002399443,-0.003068645,1.22E-07,0,0,0,1.22E-07,0,0,0,1.22E-07,0.51975245,-0.26477955,9.8458766,9.00E-08,0,0,0,9.00E-08,0,0,0,9.00E-08
1616761551,11726,1616761550,989437312,fcu,-0.028859585,0.020139114,-0.986929849,-0.157260974,1,0,0,0,1,0,0,0,1,-0.006548483,0.0027245,-0.00105873,1.22E-07,0,0,0,1.22E-07,0,0,0,1.22E-07,0.3334261,-0.3530394,9.89490985,9.00E-08,0,0,0,9.00E-08,0,0,0,9.00E-08
1616761551,11727,1616761551,29437312,fcu,-0.028864164,0.020221633,-0.986930793,-0.157243618,1,0,0,0,1,0,0,0,1,-0.005594276,0.003553659,0.000678921,1.22E-07,0,0,0,1.22E-07,0,0,0,1.22E-07,0.3138128,-0.32361945,9.8851032,9.00E-08,0,0,0,9.00E-08,0,0,0,9.00E-08
1616761551,11728,1616761551,69437312,fcu,-0.028881161,0.020257085,-0.986920522,-0.15730039,1,0,0,0,1,0,0,0,1,-0.004011939,0.003204918,-0.000743956,1.22E-07,0,0,0,1.22E-07,0,0,0,1.22E-07,0.40207265,-0.50013915,9.87529655,9.00E-08,0,0,0,9.00E-08,0,0,0,9.00E-08
1616761551,11729,1616761551,109437312,fcu,-0.028923033,0.020151878,-0.986931369,-0.15723814,1,0,0,0,1,0,0,0,1,-0.001013023,0.002654778,-0.000811868,1.22E-07,0,0,0,1.22E-07,0,0,0,1.22E-07,0.42168595,-0.44129925,9.8851032,9.00E-08,0,0,0,9.00E-08,0,0,0,9.00E-08
1616761551,11730,1616761551,150437312,fcu,-0.028927085,0.020040291,-0.986941958,-0.157185184,1,0,0,0,1,0,0,0,1,0.003188708,0.002602447,0.001205142,1.22E-07,0,0,0,1.22E-07,0,0,0,1.22E-07,0.3530394,-0.14709975,9.8851032,9.00E-08,0,0,0,9.00E-08,0,0,0,9.00E-08
1616761551,11731,1616761551,189434496,fcu,-0.028941811,0.02000783,-0.986938405,-0.157208913,1,0,0,0,1,0,0,0,1,0.003854325,0.003261346,0.000159763,1.22E-07,0,0,0,1.22E-07,0,0,0,1.22E-07,0.3138128,-0.1569064,9.87529655,9.00E-08,0,0,0,9.00E-08,0,0,0,9.00E-08
1616761551,11732,1616761551,229434496,fcu,-0.028952702,0.019933156,-0.986938083,-0.157218415,1,0,0,0,1,0,0,0,1,0.003351899,0.003543193,-0.000807277,1.22E-07,0,0,0,1.22E-07,0,0,0,1.22E-07,0.3530394,-0.1765197,9.87529655,9.00E-08,0,0,0,9.00E-08,0,0,0,9.00E-08
1616761551,11733,1616761551,269434496,fcu,-0.028941146,0.01987041,-0.986940982,-0.157210288,1,0,0,0,1,0,0,0,1,0.003486551,0.004302433,-0.001013397,1.22E-07,0,0,0,1.22E-07,0,0,0,1.22E-07,0.46091255,-0.08825985,9.89490985,9.00E-08,0,0,0,9.00E-08,0,0,0,9.00E-08
1616761551,11734,1616761551,309434496,fcu,-0.028906118,0.019989664,-0.986943692,-0.157184601,1,0,0,0,1,0,0,0,1,0.000300809,0.004199987,-0.00048441,1.22E-07,0,0,0,1.22E-07,0,0,0,1.22E-07,0.51975245,-0.08825985,9.89490985,9.00E-08,0,0,0,9.00E-08,0,0,0,9.00E-08
1616761551,11735,1616761551,349434496,fcu,-0.028899462,0.020135223,-0.98694835,-0.157137991,1,0,0,0,1,0,0,0,1,-0.00401232,0.003897339,0.000324829,1.22E-07,0,0,0,1.22E-07,0,0,0,1.22E-07,0.50013915,-0.2745862,9.8851032,9.00E-08,0,0,0,9.00E-08,0,0,0,9.00E-08
1616761551,11736,1616761551,389434496,fcu,-0.028875079,0.020210012,-0.98694248,-0.157169736,1,0,0,0,1,0,0,0,1,-0.006391621,0.003524965,-0.000185193,1.22E-07,0,0,0,1.22E-07,0,0,0,1.22E-07,0.4511059,-0.34323275,9.85568325,9.00E-08,0,0,0,9.00E-08,0,0,0,9.00E-08
1616761551,11737,1616761551,429434496,fcu,-0.028866591,0.020191284,-0.986943453,-0.157167595,1,0,0,0,1,0,0,0,1,-0.004592249,0.004131487,-0.00022391,1.22E-07,0,0,0,1.22E-07,0,0,0,1.22E-07,0.4118793,-0.2941995,9.8654899,9.00E-08,0,0,0,9.00E-08,0,0,0,9.00E-08
1616761551,11738,1616761551,469433728,fcu,-0.028796132,0.020237071,-0.986948629,-0.157142123,1,0,0,0,1,0,0,0,1,-0.002811291,0.004983684,-0.00042308,1.22E-07,0,0,0,1.22E-07,0,0,0,1.22E-07,0.36284605,-0.28439285,9.87529655,9.00E-08,0,0,0,9.00E-08,0,0,0,9.00E-08
1616761552,11739,1616761551,510433728,fcu,-0.028775974,0.020214308,-0.986955201,-0.157107465,1,0,0,0,1,0,0,0,1,-0.001529152,0.005199809,0.000453481,1.22E-07,0,0,0,1.22E-07,0,0,0,1.22E-07,0.3334261,-0.2941995,9.87529655,9.00E-08,0,0,0,9.00E-08,0,0,0,9.00E-08
1616761552,11740,1616761551,550433728,fcu,-0.028774454,0.020145005,-0.986954432,-0.15712148,1,0,0,0,1,0,0,0,1,0.000517712,0.004977249,0.00032754,1.22E-07,0,0,0,1.22E-07,0,0,0,1.22E-07,0.36284605,-0.20593965,9.87529655,9.00E-08,0,0,0,9.00E-08,0,0,0,9.00E-08
1616761552,11741,1616761551,589430144,fcu,-0.028748583,0.020142424,-0.986957838,-0.15710515,1,0,0,0,1,0,0,0,1,0.000601383,0.004762802,-0.000205671,1.22E-07,0,0,0,1.22E-07,0,0,0,1.22E-07,0.38245935,-0.1765197,9.89490985,9.00E-08,0,0,0,9.00E-08,0,0,0,9.00E-08
1616761552,11742,1616761551,629430144,fcu,-0.028766751,0.020173191,-0.986958126,-0.157096067,1,0,0,0,1,0,0,0,1,-0.000821294,0.003950393,-0.000288251,1.22E-07,0,0,0,1.22E-07,0,0,0,1.22E-07,0.4118793,-0.26477955,9.8851032,9.00E-08,0,0,0,9.00E-08,0,0,0,9.00E-08
1616761552,11743,1616761551,669430144,fcu,-0.028767915,0.020156898,-0.986969241,-0.157028101,1,0,0,0,1,0,0,0,1,-0.001621361,0.003831772,0.00050325,1.22E-07,0,0,0,1.22E-07,0,0,0,1.22E-07,0.46091255,-0.26477955,9.8654899,9.00E-08,0,0,0,9.00E-08,0,0,0,9.00E-08
1616761552,11744,1616761551,709430144,fcu,-0.028787531,0.020130016,-0.986971909,-0.157011179,1,0,0,0,1,0,0,0,1,-0.001007014,0.002974175,0.000876798,1.22E-07,0,0,0,1.22E-07,0,0,0,1.22E-07,0.4511059,-0.2549729,9.87529655,9.00E-08,0,0,0,9.00E-08,0,0,0,9.00E-08
1616761552,11745,1616761551,750430144,fcu,-0.028813878,0.02008403,-0.986974163,-0.156998069,1,0,0,0,1,0,0,0,1,-0.00050017,0.002976438,0.000732906,1.22E-07,0,0,0,1.22E-07,0,0,0,1.22E-07,0.44129925,-0.2941995,9.9047165,9.00E-08,0,0,0,9.00E-08,0,0,0,9.00E-08
1616761552,11746,1616761551,789430144,fcu,-0.028788678,0.020029798,-0.986979985,-0.156973021,1,0,0,0,1,0,0,0,1,0.00051731,0.003371846,7.73E-05,1.22E-07,0,0,0,1.22E-07,0,0,0,1.22E-07,0.4511059,-0.24516625,9.89490985,9.00E-08,0,0,0,9.00E-08,0,0,0,9.00E-08
1616761552,11747,1616761551,829430144,fcu,-0.028758951,0.019976703,-0.986978046,-0.156997422,1,0,0,0,1,0,0,0,1,0.000603857,0.004347086,-0.000633224,1.22E-07,0,0,0,1.22E-07,0,0,0,1.22E-07,0.46091255,-0.2157463,9.8654899,9.00E-08,0,0,0,9.00E-08,0,0,0,9.00E-08
1616761552,11748,1616761551,869426816,fcu,-0.028776936,0.020028242,-0.986975926,-0.15700089,1,0,0,0,1,0,0,0,1,-0.001509947,0.004191531,-0.000864391,1.22E-07,0,0,0,1.22E-07,0,0,0,1.22E-07,0.4118793,-0.22555295,9.8851032,9.00E-08,0,0,0,9.00E-08,0,0,0,9.00E-08
1616761552,11749,1616761551,909426816,fcu,-0.028763789,0.020037004,-0.98698143,-0.156967574,1,0,0,0,1,0,0,0,1,-0.002908029,0.003614789,-0.000330705,1.22E-07,0,0,0,1.22E-07,0,0,0,1.22E-07,0.3334261,-0.2353596,9.87529655,9.00E-08,0,0,0,9.00E-08,0,0,0,9.00E-08
1616761552,11750,1616761551,949426816,fcu,-0.028771826,0.020026572,-0.986984657,-0.156947143,1,0,0,0,1,0,0,0,1,-0.002354199,0.002883062,-0.000111083,1.22E-07,0,0,0,1.22E-07,0,0,0,1.22E-07,0.3334261,-0.2549729,9.8851032,9.00E-08,0,0,0,9.00E-08,0,0,0,9.00E-08
1616761552,11751,1616761551,989423232,fcu,-0.028744374,0.020034961,-0.986984383,-0.156952827,1,0,0,0,1,0,0,0,1,-0.002261891,0.003160341,0.000201498,1.22E-07,0,0,0,1.22E-07,0,0,0,1.22E-07,0.42168595,-0.2941995,9.8851032,9.00E-08,0,0,0,9.00E-08,0,0,0,9.00E-08
1616761552,11752,1616761552,29423232,fcu,-0.028755462,0.020015583,-0.98698705,-0.156936494,1,0,0,0,1,0,0,0,1,-0.001727036,0.00318986,-0.000239831,1.22E-07,0,0,0,1.22E-07,0,0,0,1.22E-07,0.4707192,-0.24516625,9.8654899,9.00E-08,0,0,0,9.00E-08,0,0,0,9.00E-08
1616761552,11753,1616761552,69423232,fcu,-0.028759872,0.019976781,-0.986982991,-0.156966156,1,0,0,0,1,0,0,0,1,-0.000503242,0.003216662,-0.001107586,1.22E-07,0,0,0,1.22E-07,0,0,0,1.22E-07,0.46091255,-0.2157463,9.8851032,9.00E-08,0,0,0,9.00E-08,0,0,0,9.00E-08
1616761552,11754,1616761552,110423232,fcu,-0.028720025,0.019947291,-0.986983605,-0.156973342,1,0,0,0,1,0,0,0,1,0.000393247,0.00310606,-0.00144502,1.22E-07,0,0,0,1.22E-07,0,0,0,1.22E-07,0.42168595,-0.2549729,9.89490985,9.00E-08,0,0,0,9.00E-08,0,0,0,9.00E-08
1616761552,11755,1616761552,150423232,fcu,-0.02871028,0.019919524,-0.986978568,-0.157010313,1,0,0,0,1,0,0,0,1,0.000246954,0.003747011,-0.00200766,1.22E-07,0,0,0,1.22E-07,0,0,0,1.22E-07,0.4118793,-0.24516625,9.8851032,9.00E-08,0,0,0,9.00E-08,0,0,0,9.00E-08
1616761552,11756,1616761552,189419136,fcu,-0.028664055,0.019873592,-0.986974755,-0.157048542,1,0,0,0,1,0,0,0,1,0.00041683,0.004181392,-0.002321889,1.22E-07,0,0,0,1.22E-07,0,0,0,1.22E-07,0.42168595,-0.24516625,9.87529655,9.00E-08,0,0,0,9.00E-08,0,0,0,9.00E-08
1616761552,11757,1616761552,229419136,fcu,-0.028635758,0.019839151,-0.986984669,-0.156995747,1,0,0,0,1,0,0,0,1,0.000804348,0.004664222,-0.001906851,1.22E-07,0,0,0,1.22E-07,0,0,0,1.22E-07,0.392266,-0.24516625,9.8851032,9.00E-08,0,0,0,9.00E-08,0,0,0,9.00E-08
1616761552,11758,1616761552,269419136,fcu,-0.028628965,0.019828884,-0.986987212,-0.156982295,1,0,0,0,1,0,0,0,1,0.000272714,0.004039476,-0.000493099,1.22E-07,0,0,0,1.22E-07,0,0,0,1.22E-07,0.38245935,-0.2549729,9.8851032,9.00E-08,0,0,0,9.00E-08,0,0,0,9.00E-08
1616761552,11759,1616761552,310419136,fcu,-0.028641044,0.019834669,-0.986986287,-0.156985178,1,0,0,0,1,0,0,0,1,-0.000462663,0.003359996,-0.000261673,1.22E-07,0,0,0,1.22E-07,0,0,0,1.22E-07,0.36284605,-0.24516625,9.87529655,9.00E-08,0,0,0,9.00E-08,0,0,0,9.00E-08
1616761552,11760,1616761552,349419136,fcu,-0.028643577,0.019839774,-0.986986411,-0.156983287,1,0,0,0,1,0,0,0,1,-0.000902701,0.002541577,-0.000166177,1.22E-07,0,0,0,1.22E-07,0,0,0,1.22E-07,0.392266,-0.24516625,9.8654899,9.00E-08,0,0,0,9.00E-08,0,0,0,9.00E-08
1616761552,11761,1616761552,389416064,fcu,-0.028669277,0.019814998,-0.986983388,-0.157000732,1,0,0,0,1,0,0,0,1,-0.001128199,0.002237499,-0.000719345,1.22E-07,0,0,0,1.22E-07,0,0,0,1.22E-07,0.4511059,-0.24516625,9.89490985,9.00E-08,0,0,0,9.00E-08,0,0,0,9.00E-08
1616761552,11762,1616761552,429416064,fcu,-0.028716186,0.019819587,-0.986980702,-0.157008469,1,0,0,0,1,0,0,0,1,-0.000504891,0.002373809,-0.001581574,1.22E-07,0,0,0,1.22E-07,0,0,0,1.22E-07,0.4511059,-0.2549729,9.87529655,9.00E-08,0,0,0,9.00E-08,0,0,0,9.00E-08
1616761552,11763,1616761552,469412224,fcu,-0.028714895,0.019795915,-0.98697436,-0.157051547,1,0,0,0,1,0,0,0,1,-6.08E-05,0.002608145,-0.001794515,1.22E-07,0,0,0,1.22E-07,0,0,0,1.22E-07,0.4314926,-0.2549729,9.8654899,9.00E-08,0,0,0,9.00E-08,0,0,0,9.00E-08
1616761553,11764,1616761552,510412224,fcu,-0.028738654,0.019774749,-0.986973276,-0.157056682,1,0,0,0,1,0,0,0,1,4.82E-05,0.003053954,-0.001999619,1.22E-07,0,0,0,1.22E-07,0,0,0,1.22E-07,0.4118793,-0.26477955,9.8851032,9.00E-08,0,0,0,9.00E-08,0,0,0,9.00E-08
1616761553,11765,1616761552,549412224,fcu,-0.028756318,0.019731983,-0.986979287,-0.157021047,1,0,0,0,1,0,0,0,1,0.000571489,0.002870178,-0.001028321,1.22E-07,0,0,0,1.22E-07,0,0,0,1.22E-07,0.42168595,-0.2353596,9.87529655,9.00E-08,0,0,0,9.00E-08,0,0,0,9.00E-08
1616761553,11766,1616761552,589408384,fcu,-0.028781686,0.019707449,-0.98697948,-0.157018269,1,0,0,0,1,0,0,0,1,0.00109338,0.003522566,-0.0004697,1.22E-07,0,0,0,1.22E-07,0,0,0,1.22E-07,0.4118793,-0.2353596,9.89490985,9.00E-08,0,0,0,9.00E-08,0,0,0,9.00E-08
1616761553,11767,1616761552,629408384,fcu,-0.028796146,0.019695305,-0.986972033,-0.157063949,1,0,0,0,1,0,0,0,1,0.001250112,0.003184611,-0.001333673,1.22E-07,0,0,0,1.22E-07,0,0,0,1.22E-07,0.392266,-0.2353596,9.87529655,9.00E-08,0,0,0,9.00E-08,0,0,0,9.00E-08
1616761553,11768,1616761552,670405056,fcu,-0.028797979,0.019695617,-0.986964981,-0.157107878,1,0,0,0,1,0,0,0,1,0.000487488,0.003578186,-0.002140332,1.22E-07,0,0,0,1.22E-07,0,0,0,1.22E-07,0.392266,-0.24516625,9.87529655,9.00E-08,0,0,0,9.00E-08,0,0,0,9.00E-08
1616761553,11769,1616761552,709405056,fcu,-0.028782583,0.019734573,-0.986958227,-0.157148233,1,0,0,0,1,0,0,0,1,-0.0004395,0.004059749,-0.002784085,1.22E-07,0,0,0,1.22E-07,0,0,0,1.22E-07,0.42168595,-0.24516625,9.8851032,9.00E-08,0,0,0,9.00E-08,0,0,0,9.00E-08
1616761553,11770,1616761552,749405056,fcu,-0.028744139,0.019763078,-0.986959694,-0.157142478,1,0,0,0,1,0,0,0,1,-0.001693917,0.004731705,-0.002333363,1.22E-07,0,0,0,1.22E-07,0,0,0,1.22E-07,0.44129925,-0.26477955,9.87529655,9.00E-08,0,0,0,9.00E-08,0,0,0,9.00E-08
1616761553,11771,1616761552,789400704,fcu,-0.028718021,0.019791556,-0.986957233,-0.157159123,1,0,0,0,1,0,0,0,1,-0.002424163,0.005276905,-0.001458483,1.22E-07,0,0,0,1.22E-07,0,0,0,1.22E-07,0.42168595,-0.26477955,9.87529655,9.00E-08,0,0,0,9.00E-08,0,0,0,9.00E-08
1616761553,11772,1616761552,829400704,fcu,-0.028687165,0.01981792,-0.986949657,-0.157209007,1,0,0,0,1,0,0,0,1,-0.002258885,0.005342003,-0.001980761,1.22E-07,0,0,0,1.22E-07,0,0,0,1.22E-07,0.40207265,-0.2353596,9.87529655,9.00E-08,0,0,0,9.00E-08,0,0,0,9.00E-08
1616761553,11773,1616761552,870397632,fcu,-0.028638206,0.019868506,-0.986943813,-0.157248229,1,0,0,0,1,0,0,0,1,-0.002938666,0.005484723,-0.002848004,1.22E-07,0,0,0,1.22E-07,0,0,0,1.22E-07,0.40207265,-0.2549729,9.89490985,9.00E-08,0,0,0,9.00E-08,0,0,0,9.00E-08
1616761553,11774,1616761552,909397632,fcu,-0.028669944,0.019835094,-0.986938282,-0.157281377,1,0,0,0,1,0,0,0,1,-0.001808567,0.004350493,-0.002514132,1.22E-07,0,0,0,1.22E-07,0,0,0,1.22E-07,0.4314926,-0.2549729,9.8851032,9.00E-08,0,0,0,9.00E-08,0,0,0,9.00E-08
1616761553,11775,1616761552,950397632,fcu,-0.028694894,0.0198034,-0.9869397,-0.157271922,1,0,0,0,1,0,0,0,1,0.000178332,0.002864625,-0.001895826,1.22E-07,0,0,0,1.22E-07,0,0,0,1.22E-07,0.42168595,-0.2353596,9.8851032,9.00E-08,0,0,0,9.00E-08,0,0,0,9.00E-08
1616761553,11776,1616761552,989393280,fcu,-0.028703736,0.019818947,-0.986936576,-0.157287952,1,0,0,0,1,0,0,0,1,-0.000102605,0.00249882,-0.001509526,1.22E-07,0,0,0,1.22E-07,0,0,0,1.22E-07,0.4118793,-0.24516625,9.87529655,9.00E-08,0,0,0,9.00E-08,0,0,0,9.00E-08
1616761553,11777,1616761553,29393280,fcu,-0.028704313,0.019802651,-0.986942462,-0.157252963,1,0,0,0,1,0,0,0,1,-0.00067281,0.002683792,-0.000856238,1.22E-07,0,0,0,1.22E-07,0,0,0,1.22E-07,0.392266,-0.24516625,9.8851032,9.00E-08,0,0,0,9.00E-08,0,0,0,9.00E-08
1616761553,11778,1616761553,69391744,fcu,-0.028712758,0.019795747,-0.986938025,-0.157280134,1,0,0,0,1,0,0,0,1,-0.000486231,0.00286857,-0.000915834,1.22E-07,0,0,0,1.22E-07,0,0,0,1.22E-07,0.4118793,-0.2353596,9.8654899,9.00E-08,0,0,0,9.00E-08,0,0,0,9.00E-08
1616761553,11779,1616761553,109391744,fcu,-0.028733555,0.019836032,-0.98694616,-0.157220202,1,0,0,0,1,0,0,0,1,-0.001207864,0.00275817,-5.55E-06,1.22E-07,0,0,0,1.22E-07,0,0,0,1.22E-07,0.42168595,-0.2549729,9.87529655,9.00E-08,0,0,0,9.00E-08,0,0,0,9.00E-08
1616761553,11780,1616761553,149391744,fcu,-0.028733241,0.019815576,-0.986955984,-0.157161158,1,0,0,0,1,0,0,0,1,-0.001072983,0.002734022,0.001055202,1.22E-07,0,0,0,1.22E-07,0,0,0,1.22E-07,0.4314926,-0.26477955,9.87529655,9.00E-08,0,0,0,9.00E-08,0,0,0,9.00E-08
1616761553,11781,1616761553,189391744,fcu,-0.028757782,0.019761046,-0.986957473,-0.157154187,1,0,0,0,1,0,0,0,1,0.000440461,0.00297856,0.000157541,1.22E-07,0,0,0,1.22E-07,0,0,0,1.22E-07,0.4314926,-0.2549729,9.87529655,9.00E-08,0,0,0,9.00E-08,0,0,0,9.00E-08
1616761553,11782,1616761553,230391744,fcu,-0.028804752,0.019782366,-0.986956995,-0.157145904,1,0,0,0,1,0,0,0,1,-0.000208155,0.003114017,0.000205617,1.22E-07,0,0,0,1.22E-07,0,0,0,1.22E-07,0.4118793,-0.24516625,9.87529655,9.00E-08,0,0,0,9.00E-08,0,0,0,9.00E-08
1616761553,11783,1616761553,270387136,fcu,-0.028877968,0.019757294,-0.986960311,-0.157114791,1,0,0,0,1,0,0,0,1,-0.000660691,0.001624368,0.000150931,1.22E-07,0,0,0,1.22E-07,0,0,0,1.22E-07,0.40207265,-0.2549729,9.8654899,9.00E-08,0,0,0,9.00E-08,0,0,0,9.00E-08
1616761553,11784,1616761553,309387136,fcu,-0.028890449,0.019770376,-0.986959423,-0.157116426,1,0,0,0,1,0,0,0,1,-0.000553336,0.001658754,-0.000270001,1.22E-07,0,0,0,1.22E-07,0,0,0,1.22E-07,0.42168595,-0.24516625,9.87529655,9.00E-08,0,0,0,9.00E-08,0,0,0,9.00E-08
1616761553,11785,1616761553,349387136,fcu,-0.028924217,0.019741343,-0.986960072,-0.15710979,1,0,0,0,1,0,0,0,1,5.47E-05,0.002207449,-0.000478281,1.22E-07,0,0,0,1.22E-07,0,0,0,1.22E-07,0.4314926,-0.24516625,9.87529655,9.00E-08,0,0,0,9.00E-08,0,0,0,9.00E-08
1616761553,11786,1616761553,389387136,fcu,-0.028943116,0.019754153,-0.986964386,-0.157077591,1,0,0,0,1,0,0,0,1,-0.000485052,0.003280297,2.40E-06,1.22E-07,0,0,0,1.22E-07,0,0,0,1.22E-07,0.4118793,-0.24516625,9.87529655,9.00E-08,0,0,0,9.00E-08,0,0,0,9.00E-08
1616761553,11787,1616761553,429387136,fcu,-0.028969364,0.019753279,-0.986965562,-0.157065474,1,0,0,0,1,0,0,0,1,-0.000239519,0.003488883,-0.000368524,1.22E-07,0,0,0,1.22E-07,0,0,0,1.22E-07,0.40207265,-0.24516625,9.8654899,9.00E-08,0,0,0,9.00E-08,0,0,0,9.00E-08
1616761553,11788,1616761553,470383552,fcu,-0.028978446,0.019768689,-0.986969498,-0.157037125,1,0,0,0,1,0,0,0,1,-0.000214117,0.003393045,-0.000144035,1.22E-07,0,0,0,1.22E-07,0,0,0,1.22E-07,0.4118793,-0.2353596,9.87529655,9.00E-08,0,0,0,9.00E-08,0,0,0,9.00E-08
1616761554,11789,1616761553,509383552,fcu,-0.02903518,0.019789477,-0.986970849,-0.157015533,1,0,0,0,1,0,0,0,1,-0.000878861,0.002393123,-0.000167604,1.22E-07,0,0,0,1.22E-07,0,0,0,1.22E-07,0.40207265,-0.26477955,9.87529655,9.00E-08,0,0,0,9.00E-08,0,0,0,9.00E-08
1616761554,11790,1616761553,550383552,fcu,-0.029007835,0.019801933,-0.986979697,-0.156963393,1,0,0,0,1,0,0,0,1,-0.001168723,0.002769178,0.000334213,1.22E-07,0,0,0,1.22E-07,0,0,0,1.22E-07,0.42168595,-0.24516625,9.8851032,9.00E-08,0,0,0,9.00E-08,0,0,0,9.00E-08
1616761554,11791,1616761553,589383552,fcu,-0.029026291,0.019799482,-0.98697532,-0.156987809,1,0,0,0,1,0,0,0,1,-0.001182207,0.004123686,2.22E-05,1.22E-07,0,0,0,1.22E-07,0,0,0,1.22E-07,0.42168595,-0.2353596,9.87529655,9.00E-08,0,0,0,9.00E-08,0,0,0,9.00E-08
1616761554,11792,1616761553,629383552,fcu,-0.029058095,0.019760036,-0.986973665,-0.156997303,1,0,0,0,1,0,0,0,1,-0.0003392,0.00402263,-0.000827954,1.22E-07,0,0,0,1.22E-07,0,0,0,1.22E-07,0.392266,-0.2549729,9.85568325,9.00E-08,0,0,0,9.00E-08,0,0,0,9.00E-08
1616761554,11793,1616761553,670380480,fcu,-0.029041896,0.01974462,-0.986968496,-0.157034726,1,0,0,0,1,0,0,0,1,0.000491979,0.004400773,-0.001563565,1.22E-07,0,0,0,1.22E-07,0,0,0,1.22E-07,0.4118793,-0.2353596,9.8851032,9.00E-08,0,0,0,9.00E-08,0,0,0,9.00E-08
1616761554,11794,1616761553,709380480,fcu,-0.029055808,0.019712387,-0.986961457,-0.157080436,1,0,0,0,1,0,0,0,1,0.000205714,0.004269501,-0.002948149,1.22E-07,0,0,0,1.22E-07,0,0,0,1.22E-07,0.4314926,-0.2549729,9.87529655,9.00E-08,0,0,0,9.00E-08,0,0,0,9.00E-08
1616761554,11795,1616761553,750380480,fcu,-0.029096684,0.019718691,-0.986965209,-0.157048505,1,0,0,0,1,0,0,0,1,0.000606749,0.003749328,-0.001789481,1.22E-07,0,0,0,1.22E-07,0,0,0,1.22E-07,0.4511059,-0.22555295,9.8654899,9.00E-08,0,0,0,9.00E-08,0,0,0,9.00E-08
1616761554,11796,1616761553,789380480,fcu,-0.029102843,0.019716634,-0.986963184,-0.157060348,1,0,0,0,1,0,0,0,1,-0.000842307,0.003666332,-0.00113878,1.22E-07,0,0,0,1.22E-07,0,0,0,1.22E-07,0.4511059,-0.2549729,9.8654899,9.00E-08,0,0,0,9.00E-08,0,0,0,9.00E-08
1616761554,11797,1616761553,829380480,fcu,-0.029108938,0.019729734,-0.986973354,-0.156993647,1,0,0,0,1,0,0,0,1,-0.001406683,0.00364252,-0.000208013,1.22E-07,0,0,0,1.22E-07,0,0,0,1.22E-07,0.4118793,-0.26477955,9.87529655,9.00E-08,0,0,0,9.00E-08,0,0,0,9.00E-08
1616761554,11798,1616761553,869378176,fcu,-0.029137022,0.019739322,-0.986971975,-0.156995903,1,0,0,0,1,0,0,0,1,-0.001827939,0.003166402,0.000796485,1.22E-07,0,0,0,1.22E-07,0,0,0,1.22E-07,0.4118793,-0.26477955,9.89490985,9.00E-08,0,0,0,9.00E-08,0,0,0,9.00E-08
1616761554,11799,1616761553,909378176,fcu,-0.029127678,0.019700525,-0.98697236,-0.157000087,1,0,0,0,1,0,0,0,1,-0.000969154,0.003257075,0.000238736,1.22E-07,0,0,0,1.22E-07,0,0,0,1.22E-07,0.48052585,-0.24516625,9.8851032,9.00E-08,0,0,0,9.00E-08,0,0,0,9.00E-08
1616761554,11800,1616761553,949378176,fcu,-0.02922227,0.019612536,-0.98697449,-0.156980137,1,0,0,0,1,0,0,0,1,0.000797979,0.002359072,-1.97E-05,1.22E-07,0,0,0,1.22E-07,0,0,0,1.22E-07,0.5099458,-0.2549729,9.8654899,9.00E-08,0,0,0,9.00E-08,0,0,0,9.00E-08
1616761554,11801,1616761553,989378176,fcu,-0.029266978,0.01956275,-0.986975902,-0.156969143,1,0,0,0,1,0,0,0,1,0.001766153,0.001526019,-0.00076271,1.22E-07,0,0,0,1.22E-07,0,0,0,1.22E-07,0.51975245,-0.24516625,9.9047165,9.00E-08,0,0,0,9.00E-08,0,0,0,9.00E-08
1616761554,11802,1616761554,29378176,fcu,-0.029310019,0.019527985,-0.986982674,-0.156922855,1,0,0,0,1,0,0,0,1,0.001594578,0.001697039,-0.000131279,1.22E-07,0,0,0,1.22E-07,0,0,0,1.22E-07,0.8237586,-0.2353596,9.85568325,9.00E-08,0,0,0,9.00E-08,0,0,0,9.00E-08
1616761554,11803,1616761554,70374336,fcu,-0.029284167,0.019552185,-0.986981594,-0.156931462,1,0,0,0,1,0,0,0,1,-0.000200262,0.002908004,-0.00014041,1.22E-07,0,0,0,1.22E-07,0,0,0,1.22E-07,0.77472535,-0.2157463,9.80665,9.00E-08,0,0,0,9.00E-08,0,0,0,9.00E-08
1616761554,11804,1616761554,109374336,fcu,-0.029427242,0.019609684,-0.986982219,-0.156893586,1,0,0,0,1,0,0,0,1,-0.002120219,0.001122877,0.000303123,1.22E-07,0,0,0,1.22E-07,0,0,0,1.22E-07,0.65704555,-0.34323275,9.91452315,9.00E-08,0,0,0,9.00E-08,0,0,0,9.00E-08
1616761554,11805,1616761554,149374336,fcu,-0.029392858,0.019614497,-0.986988402,-0.156860531,1,0,0,0,1,0,0,0,1,-0.002574769,0.001437929,0.000754367,1.22E-07,0,0,0,1.22E-07,0,0,0,1.22E-07,0.6472389,-0.1765197,9.83606995,9.00E-08,0,0,0,9.00E-08,0,0,0,9.00E-08
1616761554,11806,1616761554,189370752,fcu,-0.02954743,0.019706173,-0.986991472,-0.156800668,1,0,0,0,1,0,0,0,1,-0.003133315,-0.000112286,0.001473119,1.22E-07,0,0,0,1.22E-07,0,0,0,1.22E-07,0.7649187,-0.26477955,9.87529655,9.00E-08,0,0,0,9.00E-08,0,0,0,9.00E-08
1616761554,11807,1616761554,229370752,fcu,-0.029543859,0.01971397,-0.986998746,-0.156754571,1,0,0,0,1,0,0,0,1,-0.00276993,0.000684626,0.001944693,1.22E-07,0,0,0,1.22E-07,0,0,0,1.22E-07,0.79433865,-0.2745862,9.87529655,9.00E-08,0,0,0,9.00E-08,0,0,0,9.00E-08
1616761554,11808,1616761554,270368192,fcu,-0.029692404,0.019756569,-0.9870003,-0.156711347,1,0,0,0,1,0,0,0,1,-0.002610011,-0.00056191,0.001639086,1.22E-07,0,0,0,1.22E-07,0,0,0,1.22E-07,0.75511205,-0.24516625,9.81645665,9.00E-08,0,0,0,9.00E-08,0,0,0,9.00E-08
1616761554,11809,1616761554,309368192,fcu,-0.029658226,0.019831283,-0.987013775,-0.156623489,1,0,0,0,1,0,0,0,1,-0.003137725,0.001727797,0.002086668,1.22E-07,0,0,0,1.22E-07,0,0,0,1.22E-07,0.59820565,-0.26477955,9.95374975,9.00E-08,0,0,0,9.00E-08,0,0,0,9.00E-08
1616761554,11810,1616761554,349368192,fcu,-0.029754865,0.019799416,-0.987026507,-0.156528931,1,0,0,0,1,0,0,0,1,-0.001675406,0.000426464,0.003115278,1.22E-07,0,0,0,1.22E-07,0,0,0,1.22E-07,1.0198916,-0.24516625,9.81645665,9.00E-08,0,0,0,9.00E-08,0,0,0,9.00E-08
1616761554,11811,1616761554,389368192,fcu,-0.029781684,0.019922006,-0.987026896,-0.156505818,1,0,0,0,1,0,0,0,1,-0.002199521,0.001442999,0.00215569,1.22E-07,0,0,0,1.22E-07,0,0,0,1.22E-07,0.8433719,-0.20593965,9.75761675,9.00E-08,0,0,0,9.00E-08,0,0,0,9.00E-08
1616761554,11812,1616761554,429368192,fcu,-0.029979621,0.01999307,-0.987047568,-0.156328496,1,0,0,0,1,0,0,0,1,-0.003301294,-0.002320625,0.003394897,1.22E-07,0,0,0,1.22E-07,0,0,0,1.22E-07,0.8629852,-0.36284605,9.9831697,9.00E-08,0,0,0,9.00E-08,0,0,0,9.00E-08
1616761554,11813,1616761554,470365888,fcu,-0.029778488,0.020048593,-0.987066845,-0.156238084,1,0,0,0,1,0,0,0,1,-0.003274401,0.00036535,0.005009782,1.22E-07,0,0,0,1.22E-07,0,0,0,1.22E-07,1.02969825,-0.1176798,9.7478101,9.00E-08,0,0,0,9.00E-08,0,0,0,9.00E-08
1616761555,11814,1616761554,509365888,fcu,-0.03009391,0.020203917,-0.987077678,-0.156089125,1,0,0,0,1,0,0,0,1,-0.004948839,-0.000896912,0.005728329,1.22E-07,0,0,0,1.22E-07,0,0,0,1.22E-07,1.0002783,-0.4314926,9.9243298,9.00E-08,0,0,0,9.00E-08,0,0,0,9.00E-08
1616761555,11815,1616761554,549365888,fcu,-0.02985956,0.020169704,-0.987113469,-0.155912121,1,0,0,0,1,0,0,0,1,-0.002912552,0.001262592,0.007086233,1.22E-07,0,0,0,1.22E-07,0,0,0,1.22E-07,0.9610517,-0.36284605,9.8851032,9.00E-08,0,0,0,9.00E-08,0,0,0,9.00E-08
1616761555,11816,1616761554,589361792,fcu,-0.030189449,0.020232497,-0.987115965,-0.15582463,1,0,0,0,1,0,0,0,1,-0.000964409,-0.002242126,0.006158959,1.22E-07,0,0,0,1.22E-07,0,0,0,1.22E-07,1.18660465,-0.26477955,9.7870367,9.00E-08,0,0,0,9.00E-08,0,0,0,9.00E-08
1616761555,11817,1616761554,629361792,fcu,-0.029967003,0.020181964,-0.987150801,-0.155653341,1,0,0,0,1,0,0,0,1,1.75E-05,0.002785424,0.005450155,1.22E-07,0,0,0,1.22E-07,0,0,0,1.22E-07,1.0787315,-0.46091255,9.9635564,9.00E-08,0,0,0,9.00E-08,0,0,0,9.00E-08
1616761555,11818,1616761554,669358976,fcu,-0.030124637,0.020013397,-0.987187466,-0.155411963,1,0,0,0,1,0,0,0,1,0.002992863,-0.0004177,0.007604035,1.22E-07,0,0,0,1.22E-07,0,0,0,1.22E-07,1.30428445,-0.3530394,9.65955025,9.00E-08,0,0,0,9.00E-08,0,0,0,9.00E-08
1616761555,11819,1616761554,709358976,fcu,-0.030077462,0.019917979,-0.987229018,-0.155169221,1,0,0,0,1,0,0,0,1,0.005823752,0.004369633,0.010407098,1.22E-07,0,0,0,1.22E-07,0,0,0,1.22E-07,1.30428445,-0.196133,9.95374975,9.00E-08,0,0,0,9.00E-08,0,0,0,9.00E-08
1616761555,11820,1616761554,750358976,fcu,-0.030006735,0.019785631,-0.987279754,-0.154876761,1,0,0,0,1,0,0,0,1,0.006241869,0.002994861,0.01206629,1.22E-07,0,0,0,1.22E-07,0,0,0,1.22E-07,1.42196425,-0.34323275,9.6693569,9.00E-08,0,0,0,9.00E-08,0,0,0,9.00E-08
1616761555,11821,1616761554,789359232,fcu,-0.030103063,0.019621557,-0.987320739,-0.154617458,1,0,0,0,1,0,0,0,1,0.007504151,0.004884012,0.012722619,1.22E-07,0,0,0,1.22E-07,0,0,0,1.22E-07,1.30428445,-0.42168595,9.95374975,9.00E-08,0,0,0,9.00E-08,0,0,0,9.00E-08
1616761555,11822,1616761554,829359232,fcu,-0.029883911,0.019392798,-0.987385555,-0.15427455,1,0,0,0,1,0,0,0,1,0.008954853,0.006324235,0.013894793,1.22E-07,0,0,0,1.22E-07,0,0,0,1.22E-07,1.4317709,-0.38245935,9.7870367,9.00E-08,0,0,0,9.00E-08,0,0,0,9.00E-08
1616761555,11823,1616761554,869356672,fcu,-0.029992738,0.019222673,-0.987439273,-0.153930528,1,0,0,0,1,0,0,0,1,0.009386668,0.006966749,0.015451048,1.22E-07,0,0,0,1.22E-07,0,0,0,1.22E-07,1.06892485,-0.34323275,9.91452315,9.00E-08,0,0,0,9.00E-08,0,0,0,9.00E-08
1616761555,11824,1616761554,910356672,fcu,-0.029889073,0.01902857,-0.987505352,-0.15355044,1,0,0,0,1,0,0,0,1,0.010008345,0.005665142,0.016178742,1.22E-07,0,0,0,1.22E-07,0,0,0,1.22E-07,0.9022118,-0.14709975,9.77723005,9.00E-08,0,0,0,9.00E-08,0,0,0,9.00E-08
1616761555,11825,1616761554,950356672,fcu,-0.029973778,0.018881933,-0.987570728,-0.153130997,1,0,0,0,1,0,0,0,1,0.009413256,0.003328424,0.018236436,1.22E-07,0,0,0,1.22E-07,0,0,0,1.22E-07,0.83356525,-0.2353596,9.87529655,9.00E-08,0,0,0,9.00E-08,0,0,0,9.00E-08
1616761555,11826,1616761554,989353600,fcu,-0.029784641,0.018640982,-0.987651337,-0.152676866,1,0,0,0,1,0,0,0,1,0.009432935,0.007764796,0.020783514,1.22E-07,0,0,0,1.22E-07,0,0,0,1.22E-07,1.0591182,-0.0784532,9.85568325,9.00E-08,0,0,0,9.00E-08,0,0,0,9.00E-08
1616761555,11827,1616761555,29353600,fcu,-0.029850406,0.018555039,-0.987722242,-0.152215101,1,0,0,0,1,0,0,0,1,0.008156424,0.004753295,0.021085478,1.22E-07,0,0,0,1.22E-07,0,0,0,1.22E-07,1.18660465,-0.1569064,9.7478101,9.00E-08,0,0,0,9.00E-08,0,0,0,9.00E-08
1616761555,11828,1616761555,69350784,fcu,-0.029780488,0.01850681,-0.987813927,-0.151638601,1,0,0,0,1,0,0,0,1,0.00556728,0.005118981,0.023299512,1.22E-07,0,0,0,1.22E-07,0,0,0,1.22E-07,1.0002783,-0.2941995,9.9831697,9.00E-08,0,0,0,9.00E-08,0,0,0,9.00E-08
1616761555,11829,1616761555,109350784,fcu,-0.029519403,0.018500882,-0.987919832,-0.150999101,1,0,0,0,1,0,0,0,1,0.002290251,0.007917935,0.027379468,1.22E-07,0,0,0,1.22E-07,0,0,0,1.22E-07,1.0395049,0.2157463,9.7085835,9.00E-08,0,0,0,9.00E-08,0,0,0,9.00E-08
1616761555,11830,1616761555,149350784,fcu,-0.029460028,0.018693187,-0.988031773,-0.150252741,1,0,0,0,1,0,0,0,1,-0.00321835,0.010654882,0.03120368,1.22E-07,0,0,0,1.22E-07,0,0,0,1.22E-07,0.8041453,-0.10787315,9.77723005,9.00E-08,0,0,0,9.00E-08,0,0,0,9.00E-08
1616761555,11831,1616761555,189350784,fcu,-0.029343675,0.018765295,-0.988169525,-0.149357969,1,0,0,0,1,0,0,0,1,-0.006102378,0.007951718,0.03784205,1.22E-07,0,0,0,1.22E-07,0,0,0,1.22E-07,0.7649187,-0.1765197,9.75761675,9.00E-08,0,0,0,9.00E-08,0,0,0,9.00E-08
1616761555,11832,1616761555,229350784,fcu,-0.029478947,0.01902965,-0.988273595,-0.14860742,1,0,0,0,1,0,0,0,1,-0.008854402,0.005145123,0.04175156,1.22E-07,0,0,0,1.22E-07,0,0,0,1.22E-07,0.77472535,-0.02941995,9.8262633,9.00E-08,0,0,0,9.00E-08,0,0,0,9.00E-08
1616761555,11833,1616761555,269350784,fcu,-0.029535156,0.019282542,-0.988334075,-0.148160772,1,0,0,0,1,0,0,0,1,-0.011882105,-0.000107471,0.035124,1.22E-07,0,0,0,1.22E-07,0,0,0,1.22E-07,0.8433719,-0.6472389,9.9243298,9.00E-08,0,0,0,9.00E-08,0,0,0,9.00E-08
1616761555,11834,1616761555,310350784,fcu,-0.029565434,0.019240845,-0.988451328,-0.147375868,1,0,0,0,1,0,0,0,1,-0.008156782,-0.000739954,0.031880431,1.22E-07,0,0,0,1.22E-07,0,0,0,1.22E-07,0.9218251,-0.8041453,10.01258965,9.00E-08,0,0,0,9.00E-08,0,0,0,9.00E-08
1616761555,11835,1616761555,349350784,fcu,-0.029793768,0.019128062,-0.988556926,-0.146634421,1,0,0,0,1,0,0,0,1,0.000336882,-0.0015468,0.03401152,1.22E-07,0,0,0,1.22E-07,0,0,0,1.22E-07,0.8237586,-0.196133,9.95374975,9.00E-08,0,0,0,9.00E-08,0,0,0,9.00E-08
1616761555,11836,1616761555,389346688,fcu,-0.029761396,0.019126044,-0.988658987,-0.14595157,1,0,0,0,1,0,0,0,1,0.003763896,-0.001830561,0.035261843,1.22E-07,0,0,0,1.22E-07,0,0,0,1.22E-07,0.32361945,-0.0196133,9.9635564,9.00E-08,0,0,0,9.00E-08,0,0,0,9.00E-08
1616761555,11837,1616761555,429346688,fcu,-0.029915445,0.019073548,-0.988754888,-0.145275732,1,0,0,0,1,0,0,0,1,0.004174282,-0.003731823,0.03434594,1.22E-07,0,0,0,1.22E-07,0,0,0,1.22E-07,0.38245935,-0.10787315,9.75761675,9.00E-08,0,0,0,9.00E-08,0,0,0,9.00E-08
1616761555,11838,1616761555,469343360,fcu,-0.029872608,0.019040906,-0.988863387,-0.144548516,1,0,0,0,1,0,0,0,1,0.002937588,0.001340309,0.033348486,1.22E-07,0,0,0,1.22E-07,0,0,0,1.22E-07,0.73549875,-0.0784532,9.73800345,9.00E-08,0,0,0,9.00E-08,0,0,0,9.00E-08
1616761556,11839,1616761555,509343360,fcu,-0.029831894,0.019085063,-0.98897446,-0.143789209,1,0,0,0,1,0,0,0,1,0.000440601,0.001043012,0.035101917,1.22E-07,0,0,0,1.22E-07,0,0,0,1.22E-07,1.0002783,-0.2157463,9.6889702,9.00E-08,0,0,0,9.00E-08,0,0,0,9.00E-08
1616761556,11840,1616761555,549343360,fcu,-0.029607405,0.019145272,-0.989117312,-0.142841879,1,0,0,0,1,0,0,0,1,-0.000749732,0.006697677,0.040383883,1.22E-07,0,0,0,1.22E-07,0,0,0,1.22E-07,0.9218251,0.14709975,9.81645665,9.00E-08,0,0,0,9.00E-08,0,0,0,9.00E-08
1616761556,11841,1616761555,589343360,fcu,-0.029407984,0.01935407,-0.989233855,-0.142045667,1,0,0,0,1,0,0,0,1,-0.005933615,0.008856878,0.042773299,1.22E-07,0,0,0,1.22E-07,0,0,0,1.22E-07,0.57859235,-0.16671305,9.80665,9.00E-08,0,0,0,9.00E-08,0,0,0,9.00E-08
1616761556,11842,1616761555,629343360,fcu,-0.029328785,0.019533556,-0.989330991,-0.141359301,1,0,0,0,1,0,0,0,1,-0.010038566,0.010576567,0.039655846,1.22E-07,0,0,0,1.22E-07,0,0,0,1.22E-07,0.1176798,-0.4511059,10.14988275,9.00E-08,0,0,0,9.00E-08,0,0,0,9.00E-08
1616761556,11843,1616761555,669341568,fcu,-0.028918458,0.019490428,-0.989421271,-0.140816882,1,0,0,0,1,0,0,0,1,-0.008153414,0.012513332,0.034236073,1.22E-07,0,0,0,1.22E-07,0,0,0,1.22E-07,0.5295591,-0.42168595,10.13026945,9.00E-08,0,0,0,9.00E-08,0,0,0,9.00E-08
1616761556,11844,1616761555,710341568,fcu,-0.028860001,0.019505282,-0.989503339,-0.140249014,1,0,0,0,1,0,0,0,1,-0.004449206,0.013686795,0.028941855,1.22E-07,0,0,0,1.22E-07,0,0,0,1.22E-07,0.784532,-0.40207265,9.9439431,9.00E-08,0,0,0,9.00E-08,0,0,0,9.00E-08
1616761556,11845,1616761555,749341568,fcu,-0.028521149,0.019373181,-0.989611618,-0.139571018,1,0,0,0,1,0,0,0,1,-0.000482412,0.01547087,0.028976236,1.22E-07,0,0,0,1.22E-07,0,0,0,1.22E-07,0.59820565,-0.2941995,9.8654899,9.00E-08,0,0,0,9.00E-08,0,0,0,9.00E-08
1616761556,11846,1616761555,789336960,fcu,-0.028339273,0.019424525,-0.989726364,-0.138785078,1,0,0,0,1,0,0,0,1,0.000332056,0.015545808,0.033561729,1.22E-07,0,0,0,1.22E-07,0,0,0,1.22E-07,0.32361945,0.1176798,9.8458766,9.00E-08,0,0,0,9.00E-08,0,0,0,9.00E-08
1616761556,11847,1616761555,829336960,fcu,-0.028047682,0.019546854,-0.989832997,-0.138064792,1,0,0,0,1,0,0,0,1,-0.00277181,0.01695439,0.036607757,1.22E-07,0,0,0,1.22E-07,0,0,0,1.22E-07,0.10787315,-0.0980665,9.7478101,9.00E-08,0,0,0,9.00E-08,0,0,0,9.00E-08
1616761556,11848,1616761555,869338752,fcu,-0.027797105,0.019634907,-0.989951471,-0.137251142,1,0,0,0,1,0,0,0,1,-0.005580504,0.016595935,0.038381316,1.22E-07,0,0,0,1.22E-07,0,0,0,1.22E-07,0.48052585,-0.34323275,9.9635564,9.00E-08,0,0,0,9.00E-08,0,0,0,9.00E-08
1616761556,11849,1616761555,909338752,fcu,-0.027590978,0.019760526,-0.990076135,-0.136372673,1,0,0,0,1,0,0,0,1,-0.006667702,0.016716886,0.04190914,1.22E-07,0,0,0,1.22E-07,0,0,0,1.22E-07,0.5687857,0.1569064,9.7870367,9.00E-08,0,0,0,9.00E-08,0,0,0,9.00E-08
1616761556,11850,1616761555,949338752,fcu,-0.027531191,0.020103746,-0.990149493,-0.135800788,1,0,0,0,1,0,0,0,1,-0.012249,0.009298619,0.038564585,1.22E-07,0,0,0,1.22E-07,0,0,0,1.22E-07,-0.00980665,-0.1569064,10.03220295,9.00E-08,0,0,0,9.00E-08,0,0,0,9.00E-08
1616761556,11851,1616761555,989338752,fcu,-0.027393539,0.020371631,-0.99024114,-0.135118747,1,0,0,0,1,0,0,0,1,-0.015461385,0.00732431,0.03364566,1.22E-07,0,0,0,1.22E-07,0,0,0,1.22E-07,0.0784532,0.0196133,10.1008495,9.00E-08,0,0,0,9.00E-08,0,0,0,9.00E-08
1616761556,11852,1616761556,29338752,fcu,-0.027054765,0.020744032,-0.990345583,-0.134362756,1,0,0,0,1,0,0,0,1,-0.017997162,0.009709841,0.034644373,1.22E-07,0,0,0,1.22E-07,0,0,0,1.22E-07,0.61781895,0.02941995,9.80665,9.00E-08,0,0,0,9.00E-08,0,0,0,9.00E-08
1616761556,11853,1616761556,69335424,fcu,-0.026956384,0.021202024,-0.990420297,-0.133758973,1,0,0,0,1,0,0,0,1,-0.022017859,0.009171495,0.035161968,1.22E-07,0,0,0,1.22E-07,0,0,0,1.22E-07,0.6668522,-0.5687857,9.8654899,9.00E-08,0,0,0,9.00E-08,0,0,0,9.00E-08
1616761556,11854,1616761556,110335424,fcu,-0.02671275,0.021496769,-0.990506433,-0.133121461,1,0,0,0,1,0,0,0,1,-0.022288905,0.010334088,0.033440366,1.22E-07,0,0,0,1.22E-07,0,0,0,1.22E-07,0.2549729,-0.75511205,9.8851032,9.00E-08,0,0,0,9.00E-08,0,0,0,9.00E-08
1616761556,11855,1616761556,149335424,fcu,-0.026598471,0.021612127,-0.990565978,-0.132681881,1,0,0,0,1,0,0,0,1,-0.017537905,0.00954457,0.029129829,1.22E-07,0,0,0,1.22E-07,0,0,0,1.22E-07,0.0980665,-0.8237586,9.85568325,9.00E-08,0,0,0,9.00E-08,0,0,0,9.00E-08
1616761556,11856,1616761556,189335424,fcu,-0.026397066,0.021402538,-0.990645697,-0.132159863,1,0,0,0,1,0,0,0,1,-0.008301425,0.012613006,0.026476534,1.22E-07,0,0,0,1.22E-07,0,0,0,1.22E-07,0.3334261,-0.77472535,9.83606995,9.00E-08,0,0,0,9.00E-08,0,0,0,9.00E-08
1616761556,11857,1616761556,229335424,fcu,-0.026363461,0.021153999,-0.990735373,-0.131532876,1,0,0,0,1,0,0,0,1,0.002508742,0.010907339,0.027767286,1.22E-07,0,0,0,1.22E-07,0,0,0,1.22E-07,0.61781895,-0.5099458,9.6889702,9.00E-08,0,0,0,9.00E-08,0,0,0,9.00E-08
1616761556,11858,1616761556,269335424,fcu,-0.02616438,0.020798321,-0.990835433,-0.130873982,1,0,0,0,1,0,0,0,1,0.010405559,0.012911677,0.030631918,1.22E-07,0,0,0,1.22E-07,0,0,0,1.22E-07,0.5295591,-0.3138128,9.8458766,9.00E-08,0,0,0,9.00E-08,0,0,0,9.00E-08
1616761556,11859,1616761556,309335424,fcu,-0.025813418,0.020257342,-0.99097807,-0.129945267,1,0,0,0,1,0,0,0,1,0.016920045,0.016836913,0.036354754,1.22E-07,0,0,0,1.22E-07,0,0,0,1.22E-07,0.69627215,-0.392266,9.8262633,9.00E-08,0,0,0,9.00E-08,0,0,0,9.00E-08
1616761556,11860,1616761556,350335424,fcu,-0.025408067,0.01980743,-0.991103512,-0.129135297,1,0,0,0,1,0,0,0,1,0.020016832,0.02335556,0.041443948,1.22E-07,0,0,0,1.22E-07,0,0,0,1.22E-07,0.8433719,0.0392266,9.65955025,9.00E-08,0,0,0,9.00E-08,0,0,0,9.00E-08
1616761556,11861,1616761556,389331840,fcu,-0.025420608,0.019391189,-0.991183736,-0.128579066,1,0,0,0,1,0,0,0,1,0.019170921,0.023253104,0.037392974,1.22E-07,0,0,0,1.22E-07,0,0,0,1.22E-07,0.4118793,-0.7060788,9.91452315,9.00E-08,0,0,0,9.00E-08,0,0,0,9.00E-08
1616761556,11862,1616761556,429331840,fcu,-0.025273792,0.018877547,-0.991246861,-0.128197244,1,0,0,0,1,0,0,0,1,0.019915137,0.02007178,0.029932497,1.22E-07,0,0,0,1.22E-07,0,0,0,1.22E-07,-0.196133,-0.08825985,10.01258965,9.00E-08,0,0,0,9.00E-08,0,0,0,9.00E-08
1616761556,11863,1616761556,469331584,fcu,-0.026424508,0.0186557,-0.991233099,-0.128104073,1,0,0,0,1,0,0,0,1,0.01804693,-0.003386127,0.01656696,1.22E-07,0,0,0,1.22E-07,0,0,0,1.22E-07,-0.9414384,-0.67665885,9.99297635,9.00E-08,0,0,0,9.00E-08,0,0,0,9.00E-08
1616761557,11864,1616761556,509331584,fcu,-0.027153827,0.017948184,-0.991266591,-0.127793104,1,0,0,0,1,0,0,0,1,0.022863934,-0.025407892,0.008934567,1.22E-07,0,0,0,1.22E-07,0,0,0,1.22E-07,-1.34351105,-0.8825985,10.50292215,9.00E-08,0,0,0,9.00E-08,0,0,0,9.00E-08
1616761557,11865,1616761556,550331584,fcu,-0.027451218,0.017032408,-0.991377463,-0.126992333,1,0,0,0,1,0,0,0,1,0.036542252,-0.027515363,0.017858725,1.22E-07,0,0,0,1.22E-07,0,0,0,1.22E-07,1.22583125,0.3334261,9.7478101,9.00E-08,0,0,0,9.00E-08,0,0,0,9.00E-08
1616761557,11866,1616761556,589326720,fcu,-0.027402439,0.016477741,-0.991507476,-0.12605759,1,0,0,0,1,0,0,0,1,0.039436463,-0.002647515,0.033557896,1.22E-07,0,0,0,1.22E-07,0,0,0,1.22E-07,3.1577413,0.81395195,9.1986377,9.00E-08,0,0,0,9.00E-08,0,0,0,9.00E-08
1616761557,11867,1616761556,629326720,fcu,-0.027368993,0.016646387,-0.991568532,-0.125561471,1,0,0,0,1,0,0,0,1,0.020253543,0.005674539,0.0374173,1.22E-07,0,0,0,1.22E-07,0,0,0,1.22E-07,1.97113665,0.2549729,9.3947707,9.00E-08,0,0,0,9.00E-08,0,0,0,9.00E-08
1616761557,11868,1616761556,669326720,fcu,-0.027511399,0.016755864,-0.991587857,-0.125363012,1,0,0,0,1,0,0,0,1,0.000674823,0.010485142,0.026730765,1.22E-07,0,0,0,1.22E-07,0,0,0,1.22E-07,-0.81395195,-0.57859235,10.2185293,9.00E-08,0,0,0,9.00E-08,0,0,0,9.00E-08
1616761557,11869,1616761556,709326720,fcu,-0.027390181,0.016488574,-0.99162325,-0.12514486,1,0,0,0,1,0,0,0,1,-0.001754032,0.009806301,0.015570726,1.22E-07,0,0,0,1.22E-07,0,0,0,1.22E-07,-1.59848395,-0.30400615,10.0420096,9.00E-08,0,0,0,9.00E-08,0,0,0,9.00E-08
1616761557,11870,1616761556,749326720,fcu,-0.027628374,0.016405823,-0.991646203,-0.124921291,1,0,0,0,1,0,0,0,1,0.002885077,0.008448524,0.010012751,1.22E-07,0,0,0,1.22E-07,0,0,0,1.22E-07,-0.02941995,0.0980665,10.1204628,9.00E-08,0,0,0,9.00E-08,0,0,0,9.00E-08
1616761557,11871,1616761556,789328256,fcu,-0.027689126,0.016364487,-0.991680134,-0.124643604,1,0,0,0,1,0,0,0,1,0.002417356,0.005434843,0.009864764,1.22E-07,0,0,0,1.22E-07,0,0,0,1.22E-07,1.69655045,-0.5099458,9.8262633,9.00E-08,0,0,0,9.00E-08,0,0,0,9.00E-08
1616761557,11872,1616761556,829328256,fcu,-0.027932144,0.016257087,-0.991720727,-0.124279935,1,0,0,0,1,0,0,0,1,0.002857619,0.002624586,0.013112148,1.22E-07,0,0,0,1.22E-07,0,0,0,1.22E-07,1.77500365,-0.65704555,9.83606995,9.00E-08,0,0,0,9.00E-08,0,0,0,9.00E-08
1616761557,11873,1616761556,869328256,fcu,-0.027924881,0.016072852,-0.99174715,-0.124094544,1,0,0,0,1,0,0,0,1,0.00488638,0.004457766,0.014785879,1.22E-07,0,0,0,1.22E-07,0,0,0,1.22E-07,0.2941995,-0.2549729,9.9047165,9.00E-08,0,0,0,9.00E-08,0,0,0,9.00E-08
1616761557,11874,1616761556,910328256,fcu,-0.027906271,0.015869361,-0.991759284,-0.124027926,1,0,0,0,1,0,0,0,1,0.00633424,0.00858284,0.009933406,1.22E-07,0,0,0,1.22E-07,0,0,0,1.22E-07,-0.8433719,-0.24516625,9.97336305,9.00E-08,0,0,0,9.00E-08,0,0,0,9.00E-08
1616761557,11875,1616761556,949328256,fcu,-0.027976912,0.015393488,-0.99178134,-0.123895545,1,0,0,0,1,0,0,0,1,0.012465045,0.009702133,0.005389165,1.22E-07,0,0,0,1.22E-07,0,0,0,1.22E-07,-0.16671305,-0.57859235,10.03220295,9.00E-08,0,0,0,9.00E-08,0,0,0,9.00E-08
1616761557,11876,1616761556,989328256,fcu,-0.028111092,0.014914184,-0.991816428,-0.123642659,1,0,0,0,1,0,0,0,1,0.020628219,0.010303212,0.00665145,1.22E-07,0,0,0,1.22E-07,0,0,0,1.22E-07,0.9218251,-0.28439285,9.75761675,9.00E-08,0,0,0,9.00E-08,0,0,0,9.00E-08
1616761557,11877,1616761557,29328256,fcu,-0.02816866,0.01457961,-0.991837688,-0.123498839,1,0,0,0,1,0,0,0,1,0.022964979,0.007553242,0.008286456,1.22E-07,0,0,0,1.22E-07,0,0,0,1.22E-07,0.99047165,0.0392266,9.91452315,9.00E-08,0,0,0,9.00E-08,0,0,0,9.00E-08
1616761557,11878,1616761557,69324416,fcu,-0.028192623,0.014266949,-0.991847748,-0.123449082,1,0,0,0,1,0,0,0,1,0.019642796,0.008349121,0.00547355,1.22E-07,0,0,0,1.22E-07,0,0,0,1.22E-07,0.3530394,-0.38245935,9.83606995,9.00E-08,0,0,0,9.00E-08,0,0,0,9.00E-08
1616761557,11879,1616761557,109324416,fcu,-0.028211723,0.013962763,-0.991858138,-0.123396007,1,0,0,0,1,0,0,0,1,0.017223241,0.008088166,0.00341246,1.22E-07,0,0,0,1.22E-07,0,0,0,1.22E-07,-0.1176798,0.0588399,9.7478101,9.00E-08,0,0,0,9.00E-08,0,0,0,9.00E-08
1616761557,11880,1616761557,149324416,fcu,-0.028204064,0.013814271,-0.991859993,-0.123399561,1,0,0,0,1,0,0,0,1,0.014049822,0.008872263,0.001157681,1.22E-07,0,0,0,1.22E-07,0,0,0,1.22E-07,0.08825985,0.42168595,9.8654899,9.00E-08,0,0,0,9.00E-08,0,0,0,9.00E-08
1616761557,11881,1616761557,189324416,fcu,-0.0282213,0.013802298,-0.991848045,-0.123492957,1,0,0,0,1,0,0,0,1,0.006721016,0.00722919,-0.001635368,1.22E-07,0,0,0,1.22E-07,0,0,0,1.22E-07,0.784532,0.22555295,9.8458766,9.00E-08,0,0,0,9.00E-08,0,0,0,9.00E-08
1616761557,11882,1616761557,230324416,fcu,-0.028103751,0.013918941,-0.991851762,-0.123476817,1,0,0,0,1,0,0,0,1,-0.001248274,0.008161344,-0.00289611,1.22E-07,0,0,0,1.22E-07,0,0,0,1.22E-07,0.85317855,-0.18632635,10.01258965,9.00E-08,0,0,0,9.00E-08,0,0,0,9.00E-08
1616761557,11883,1616761557,269324416,fcu,-0.028011099,0.014092826,-0.991866986,-0.123355797,1,0,0,0,1,0,0,0,1,-0.006991382,0.007845767,0.000166685,1.22E-07,0,0,0,1.22E-07,0,0,0,1.22E-07,0.3530394,-0.0784532,9.95374975,9.00E-08,0,0,0,9.00E-08,0,0,0,9.00E-08
1616761557,11884,1616761557,309324416,fcu,-0.027884298,0.014382925,-0.991863874,-0.123376059,1,0,0,0,1,0,0,0,1,-0.012204079,0.008584375,0.002095935,1.22E-07,0,0,0,1.22E-07,0,0,0,1.22E-07,-0.00980665,0.06864655,9.87529655,9.00E-08,0,0,0,9.00E-08,0,0,0,9.00E-08
1616761557,11885,1616761557,349324416,fcu,-0.02745579,0.014655818,-0.991849897,-0.123552289,1,0,0,0,1,0,0,0,1,-0.015913364,0.01197244,-0.002091967,1.22E-07,0,0,0,1.22E-07,0,0,0,1.22E-07,0.71588545,0.08825985,9.63993695,9.00E-08,0,0,0,9.00E-08,0,0,0,9.00E-08
1616761557,11886,1616761557,389321344,fcu,-0.026241313,0.014866302,-0.991870869,-0.123622672,1,0,0,0,1,0,0,0,1,-0.017362069,0.032347523,-0.003470536,1.22E-07,0,0,0,1.22E-07,0,0,0,1.22E-07,2.1770763,-0.0196133,9.4339973,9.00E-08,0,0,0,9.00E-08,0,0,0,9.00E-08
1616761557,11887,1616761557,429321344,fcu,-0.025268109,0.015236809,-0.991832929,-0.124083858,1,0,0,0,1,0,0,0,1,-0.020372273,0.052361526,-0.009546106,1.22E-07,0,0,0,1.22E-07,0,0,0,1.22E-07,2.36340265,-0.57859235,9.414384,9.00E-08,0,0,0,9.00E-08,0,0,0,9.00E-08
1616761557,11888,1616761557,469321344,fcu,-0.025069745,0.015624035,-0.991754902,-0.124698081,1,0,0,0,1,0,0,0,1,-0.023965374,0.043064382,-0.020114433,1.22E-07,0,0,0,1.22E-07,0,0,0,1.22E-07,-0.588399,-0.980665,10.198916,9.00E-08,0,0,0,9.00E-08,0,0,0,9.00E-08
1616761558,11889,1616761557,510321344,fcu,-0.024780461,0.01534708,-0.991749626,-0.124832192,1,0,0,0,1,0,0,0,1,-0.014185423,0.028842311,-0.022332571,1.22E-07,0,0,0,1.22E-07,0,0,0,1.22E-07,-2.59876225,-1.46119085,10.93441475,9.00E-08,0,0,0,9.00E-08,0,0,0,9.00E-08
1616761558,11890,1616761557,549321344,fcu,-0.02443661,0.01457895,-0.991869834,-0.124034427,1,0,0,0,1,0,0,0,1,0.010572659,0.02362659,0.001323693,1.22E-07,0,0,0,1.22E-07,0,0,0,1.22E-07,-1.12776475,0.1176798,10.2381426,9.00E-08,0,0,0,9.00E-08,0,0,0,9.00E-08
1616761558,11891,1616761557,589321344,fcu,-0.024408521,0.014634165,-0.991877032,-0.123975882,1,0,0,0,1,0,0,0,1,0.015833117,0.015689563,0.016141418,1.22E-07,0,0,0,1.22E-07,0,0,0,1.22E-07,1.53964405,1.28467115,9.56148375,9.00E-08,0,0,0,9.00E-08,0,0,0,9.00E-08
1616761558,11892,1616761557,630321344,fcu,-0.02434881,0.014927152,-0.991877997,-0.123944968,1,0,0,0,1,0,0,0,1,0.000483362,0.011653176,0.010477331,1.22E-07,0,0,0,1.22E-07,0,0,0,1.22E-07,2.0201699,-0.8041453,9.7281968,9.00E-08,0,0,0,9.00E-08,0,0,0,9.00E-08
1616761558,11893,1616761557,669321344,fcu,-0.024250656,0.014818483,-0.991916005,-0.123672783,1,0,0,0,1,0,0,0,1,-0.007154965,0.00375214,0.011210741,1.22E-07,0,0,0,1.22E-07,0,0,0,1.22E-07,0.02941995,-0.2941995,9.60071035,9.00E-08,0,0,0,9.00E-08,0,0,0,9.00E-08
1616761558,11894,1616761557,709321344,fcu,-0.02439719,0.014991188,-0.991866818,-0.124017163,1,0,0,0,1,0,0,0,1,-0.008230722,0.004087506,0.002594016,1.22E-07,0,0,0,1.22E-07,0,0,0,1.22E-07,-1.6082906,0.0588399,9.8654899,9.00E-08,0,0,0,9.00E-08,0,0,0,9.00E-08
1616761558,11895,1616761557,749321344,fcu,-0.024435694,0.015014915,-0.991832454,-0.124281265,1,0,0,0,1,0,0,0,1,-0.008790076,0.000112571,-0.010441118,1.22E-07,0,0,0,1.22E-07,0,0,0,1.22E-07,-0.9022118,-0.7649187,9.67916355,9.00E-08,0,0,0,9.00E-08,0,0,0,9.00E-08
1616761558,11896,1616761557,789316736,fcu,-0.024918711,0.014788868,-0.991830389,-0.124228931,1,0,0,0,1,0,0,0,1,-0.000417192,-0.005237894,-0.009328561,1.22E-07,0,0,0,1.22E-07,0,0,0,1.22E-07,1.10815145,-0.02941995,9.7478101,9.00E-08,0,0,0,9.00E-08,0,0,0,9.00E-08
1616761558,11897,1616761557,829316736,fcu,-0.025089966,0.014886544,-0.991830637,-0.124180804,1,0,0,0,1,0,0,0,1,0.001085075,-0.008001717,-0.003024454,1.22E-07,0,0,0,1.22E-07,0,0,0,1.22E-07,2.20649625,0.0392266,9.6301303,9.00E-08,0,0,0,9.00E-08,0,0,0,9.00E-08
1616761558,11898,1616761557,869314432,fcu,-0.025371497,0.015141826,-0.991842169,-0.124000503,1,0,0,0,1,0,0,0,1,-0.005197534,-0.009775665,0.003271502,1.22E-07,0,0,0,1.22E-07,0,0,0,1.22E-07,1.22583125,-0.392266,9.9635564,9.00E-08,0,0,0,9.00E-08,0,0,0,9.00E-08
1616761558,11899,1616761557,909314432,fcu,-0.025514138,0.015317581,-0.991828784,-0.124056697,1,0,0,0,1,0,0,0,1,-0.010139445,-0.007170253,0.004179319,1.22E-07,0,0,0,1.22E-07,0,0,0,1.22E-07,-0.04903325,-0.4903325,10.0812362,9.00E-08,0,0,0,9.00E-08,0,0,0,9.00E-08
1616761558,11900,1616761557,950314432,fcu,-0.025688343,0.015169626,-0.991812934,-0.124165597,1,0,0,0,1,0,0,0,1,-0.007571917,-0.003840402,-0.000136831,1.22E-07,0,0,0,1.22E-07,0,0,0,1.22E-07,-0.2157463,-0.59820565,9.95374975,9.00E-08,0,0,0,9.00E-08,0,0,0,9.00E-08
1616761558,11901,1616761557,989314432,fcu,-0.025819596,0.015017378,-0.99180313,-0.124235174,1,0,0,0,1,0,0,0,1,0.001538166,-0.003226973,-0.003574125,1.22E-07,0,0,0,1.22E-07,0,0,0,1.22E-07,0.69627215,-0.04903325,9.79684335,9.00E-08,0,0,0,9.00E-08,0,0,0,9.00E-08
1616761558,11902,1616761558,29314432,fcu,-0.02607682,0.015070671,-0.991792427,-0.124260437,1,0,0,0,1,0,0,0,1,0.002413358,-0.004052399,-0.004311798,1.22E-07,0,0,0,1.22E-07,0,0,0,1.22E-07,1.4709975,0.1569064,9.77723005,9.00E-08,0,0,0,9.00E-08,0,0,0,9.00E-08
1616761558,11903,1616761558,69314432,fcu,-0.025976369,0.015256704,-0.991808472,-0.124130645,1,0,0,0,1,0,0,0,1,-0.003259995,-0.000903502,-0.000498448,1.22E-07,0,0,0,1.22E-07,0,0,0,1.22E-07,1.2944778,0.0392266,9.9047165,9.00E-08,0,0,0,9.00E-08,0,0,0,9.00E-08
1616761558,11904,1616761558,109314432,fcu,-0.026217306,0.015719258,-0.991812623,-0.123989026,1,0,0,0,1,0,0,0,1,-0.013133265,-0.001855453,0.005332664,1.22E-07,0,0,0,1.22E-07,0,0,0,1.22E-07,0.44129925,0.2549729,9.8851032,9.00E-08,0,0,0,9.00E-08,0,0,0,9.00E-08
1616761558,11905,1616761558,149314432,fcu,-0.025953408,0.016133718,-0.99177852,-0.124263798,1,0,0,0,1,0,0,0,1,-0.021769308,0.001954416,0.000911119,1.22E-07,0,0,0,1.22E-07,0,0,0,1.22E-07,-0.0196133,-0.1176798,10.22833595,9.00E-08,0,0,0,9.00E-08,0,0,0,9.00E-08
1616761558,11906,1616761558,189310848,fcu,-0.025966374,0.016467915,-0.991732154,-0.124586878,1,0,0,0,1,0,0,0,1,-0.023923093,0.005966382,-0.008481852,1.22E-07,0,0,0,1.22E-07,0,0,0,1.22E-07,0.6864655,-0.67665885,9.87529655,9.00E-08,0,0,0,9.00E-08,0,0,0,9.00E-08
1616761558,11907,1616761558,229310848,fcu,-0.025896625,0.016742195,-0.991697049,-0.124844009,1,0,0,0,1,0,0,0,1,-0.021297604,0.008491943,-0.013661768,1.22E-07,0,0,0,1.22E-07,0,0,0,1.22E-07,0.67665885,-0.51975245,9.9047165,9.00E-08,0,0,0,9.00E-08,0,0,0,9.00E-08
1616761558,11908,1616761558,269307776,fcu,-0.025897691,0.016937416,-0.991676256,-0.124982548,1,0,0,0,1,0,0,0,1,-0.016632136,0.003694309,-0.013186079,1.22E-07,0,0,0,1.22E-07,0,0,0,1.22E-07,0.67665885,-0.4903325,9.77723005,9.00E-08,0,0,0,9.00E-08,0,0,0,9.00E-08
1616761558,11909,1616761558,309307776,fcu,-0.025823363,0.017083102,-0.991698982,-0.124797637,1,0,0,0,1,0,0,0,1,-0.011715244,0.008111503,-0.004402257,1.22E-07,0,0,0,1.22E-07,0,0,0,1.22E-07,0.38245935,-0.32361945,9.8262633,9.00E-08,0,0,0,9.00E-08,0,0,0,9.00E-08
1616761558,11910,1616761558,349307776,fcu,-0.025503486,0.017156703,-0.991714243,-0.124732032,1,0,0,0,1,0,0,0,1,-0.008951355,0.008850498,0.0033818,1.22E-07,0,0,0,1.22E-07,0,0,0,1.22E-07,0.44129925,-0.36284605,9.6889702,9.00E-08,0,0,0,9.00E-08,0,0,0,9.00E-08
1616761558,11911,1616761558,389303424,fcu,-0.025475959,0.017126855,-0.9917227,-0.124674505,1,0,0,0,1,0,0,0,1,-0.006058335,0.014972407,0.004392821,1.22E-07,0,0,0,1.22E-07,0,0,0,1.22E-07,0.89240515,-0.69627215,9.80665,9.00E-08,0,0,0,9.00E-08,0,0,0,9.00E-08
1616761558,11912,1616761558,429303424,fcu,-0.025482086,0.017134421,-0.991716914,-0.124718231,1,0,0,0,1,0,0,0,1,-0.003737684,0.009126216,0.002809969,1.22E-07,0,0,0,1.22E-07,0,0,0,1.22E-07,0.69627215,-0.38245935,9.7870367,9.00E-08,0,0,0,9.00E-08,0,0,0,9.00E-08
1616761558,11913,1616761558,469301120,fcu,-0.025662863,0.017247961,-0.991689721,-0.124881636,1,0,0,0,1,0,0,0,1,-0.004307029,0.004423615,-0.002409698,1.22E-07,0,0,0,1.22E-07,0,0,0,1.22E-07,-0.0588399,0.10787315,9.9635564,9.00E-08,0,0,0,9.00E-08,0,0,0,9.00E-08
1616761559,11914,1616761558,509301120,fcu,-0.025712127,0.017455891,-0.991659527,-0.125082216,1,0,0,0,1,0,0,0,1,-0.006824046,-0.000530193,-0.007540996,1.22E-07,0,0,0,1.22E-07,0,0,0,1.22E-07,0.0784532,-0.0980665,9.7085835,9.00E-08,0,0,0,9.00E-08,0,0,0,9.00E-08
1616761559,11915,1616761558,549301120,fcu,-0.025819508,0.017729274,-0.991660082,-0.125017233,1,0,0,0,1,0,0,0,1,-0.011020787,-0.003674157,-0.00548442,1.22E-07,0,0,0,1.22E-07,0,0,0,1.22E-07,0.8041453,-0.1372931,9.81645665,9.00E-08,0,0,0,9.00E-08,0,0,0,9.00E-08
1616761559,11916,1616761558,589301120,fcu,-0.025436272,0.017866098,-0.991707268,-0.124701616,1,0,0,0,1,0,0,0,1,-0.011500656,0.00339164,0.002594817,1.22E-07,0,0,0,1.22E-07,0,0,0,1.22E-07,1.81423025,-0.7649187,10.5715687,9.00E-08,0,0,0,9.00E-08,0,0,0,9.00E-08
1616761559,11917,1616761558,629301120,fcu,-0.02462676,0.01767962,-0.991852174,-0.123734471,1,0,0,0,1,0,0,0,1,-0.008626127,0.023649227,0.022320027,1.22E-07,0,0,0,1.22E-07,0,0,0,1.22E-07,1.6671305,-1.0198916,10.3558224,9.00E-08,0,0,0,9.00E-08,0,0,0,9.00E-08
1616761559,11918,1616761558,669301120,fcu,-0.024185659,0.017475367,-0.991902587,-0.123446036,1,0,0,0,1,0,0,0,1,0.000416356,0.034497272,0.031978361,1.22E-07,0,0,0,1.22E-07,0,0,0,1.22E-07,-0.28439285,-0.81395195,10.34601575,9.00E-08,0,0,0,9.00E-08,0,0,0,9.00E-08
1616761559,11919,1616761558,709301120,fcu,-0.023433902,0.017054483,-0.991898059,-0.123686043,1,0,0,0,1,0,0,0,1,0.007476942,0.040616084,0.016133599,1.22E-07,0,0,0,1.22E-07,0,0,0,1.22E-07,-1.46119085,-0.2549729,9.9047165,9.00E-08,0,0,0,9.00E-08,0,0,0,9.00E-08
1616761559,11920,1616761558,750301120,fcu,-0.023421627,0.016524053,-0.991903304,-0.123718305,1,0,0,0,1,0,0,0,1,0.016500782,0.03017677,0.001353147,1.22E-07,0,0,0,1.22E-07,0,0,0,1.22E-07,-0.91201845,1.11E-15,9.1005712,9.00E-08,0,0,0,9.00E-08,0,0,0,9.00E-08
1616761559,11921,1616761558,789301120,fcu,-0.024400052,0.016591326,-0.991836841,-0.124052591,1,0,0,0,1,0,0,0,1,0.014130561,-0.000421109,-0.007590443,1.22E-07,0,0,0,1.22E-07,0,0,0,1.22E-07,-0.7256921,0.2157463,9.28689755,9.00E-08,0,0,0,9.00E-08,0,0,0,9.00E-08
1616761559,11922,1616761558,829301120,fcu,-0.024775924,0.016634129,-0.991764317,-0.124551193,1,0,0,0,1,0,0,0,1,0.004985501,-0.027515844,-0.018457249,1.22E-07,0,0,0,1.22E-07,0,0,0,1.22E-07,0.2549729,-0.75511205,9.9439431,9.00E-08,0,0,0,9.00E-08,0,0,0,9.00E-08
