Time,header.seq,header.stamp.secs,header.stamp.nsecs,header.frame_id,orientation.x,orientation.y,orientation.z,orientation.w,orientation_covariance_0,orientation_covariance_1,orientation_covariance_2,orientation_covariance_3,orientation_covariance_4,orientation_covariance_5,orientation_covariance_6,orientation_covariance_7,orientation_covariance_8,angular_velocity.x,angular_velocity.y,angular_velocity.z,angular_velocity_covariance_0,angular_velocity_covariance_1,angular_velocity_covariance_2,angular_velocity_covariance_3,angular_velocity_covariance_4,angular_velocity_covariance_5,angular_velocity_covariance_6,angular_velocity_covariance_7,angular_velocity_covariance_8,linear_acceleration.x,linear_acceleration.y,linear_acceleration.z,linear_acceleration_covariance_0,linear_acceleration_covariance_1,linear_acceleration_covariance_2,linear_acceleration_covariance_3,linear_acceleration_covariance_4,linear_acceleration_covariance_5,linear_acceleration_covariance_6,linear_acceleration_covariance_7,linear_acceleration_covariance_8
1616766029,123648,1616766027,709571776,fcu,-0.036490077,0.021663149,-0.992443728,-0.115128748,1,0,0,0,1,0,0,0,1,0.006179662,-0.008172443,-0.006653607,1.22E-07,0,0,0,1.22E-07,0,0,0,1.22E-07,0.61781895,-0.2353596,9.91452315,9.00E-08,0,0,0,9.00E-08,0,0,0,9.00E-08
1616766029,123649,1616766027,748571776,fcu,-0.036552788,0.021804392,-0.992418199,-0.115302125,1,0,0,0,1,0,0,0,1,0.001712944,-0.005341001,-0.006852191,1.22E-07,0,0,0,1.22E-07,0,0,0,1.22E-07,0.4707192,0.34323275,9.8654899,9.00E-08,0,0,0,9.00E-08,0,0,0,9.00E-08
1616766029,123650,1616766027,789571776,fcu,-0.036523263,0.022070531,-0.992383393,-0.115560134,1,0,0,0,1,0,0,0,1,-0.005560197,-0.004317435,-0.009860538,1.22E-07,0,0,0,1.22E-07,0,0,0,1.22E-07,0.4511059,-0.02941995,9.6889702,9.00E-08,0,0,0,9.00E-08,0,0,0,9.00E-08
1616766029,123651,1616766027,828571776,fcu,-0.036695016,0.022405756,-0.992361937,-0.115625446,1,0,0,0,1,0,0,0,1,-0.010876482,-0.003706561,-0.009411056,1.22E-07,0,0,0,1.22E-07,0,0,0,1.22E-07,0.59820565,-0.0196133,9.9243298,9.00E-08,0,0,0,9.00E-08,0,0,0,9.00E-08
1616766029,123652,1616766027,868571776,fcu,-0.036459549,0.022910561,-0.99234041,-0.115785654,1,0,0,0,1,0,0,0,1,-0.016515709,-0.001112834,-0.006126364,1.22E-07,0,0,0,1.22E-07,0,0,0,1.22E-07,0.8237586,0.20593965,9.73800345,9.00E-08,0,0,0,9.00E-08,0,0,0,9.00E-08
1616766029,123653,1616766027,909571776,fcu,-0.036518333,0.023575114,-0.992285347,-0.11610519,1,0,0,0,1,0,0,0,1,-0.024794482,-0.001320193,-0.009233287,1.22E-07,0,0,0,1.22E-07,0,0,0,1.22E-07,0.4118793,0.00980665,9.73800345,9.00E-08,0,0,0,9.00E-08,0,0,0,9.00E-08
1616766029,123654,1616766027,948571776,fcu,-0.036389443,0.024202273,-0.992237181,-0.116427808,1,0,0,0,1,0,0,0,1,-0.030169584,0.000214664,-0.01326941,1.22E-07,0,0,0,1.22E-07,0,0,0,1.22E-07,0.3530394,-0.2941995,9.9831697,9.00E-08,0,0,0,9.00E-08,0,0,0,9.00E-08
1616766029,123655,1616766027,989571776,fcu,-0.036212374,0.024833628,-0.992195603,-0.11670407,1,0,0,0,1,0,0,0,1,-0.032641169,0.001463629,-0.015079908,1.22E-07,0,0,0,1.22E-07,0,0,0,1.22E-07,0.5687857,-0.4314926,9.8851032,9.00E-08,0,0,0,9.00E-08,0,0,0,9.00E-08
1616766029,123656,1616766028,28571776,fcu,-0.036156699,0.025431118,-0.992165688,-0.1168469,1,0,0,0,1,0,0,0,1,-0.032428216,0.002804024,-0.012392348,1.22E-07,0,0,0,1.22E-07,0,0,0,1.22E-07,0.5099458,-0.65704555,9.9439431,9.00E-08,0,0,0,9.00E-08,0,0,0,9.00E-08
1616766029,123657,1616766028,68571776,fcu,-0.035944858,0.025846841,-0.99215341,-0.11692527,1,0,0,0,1,0,0,0,1,-0.029217917,0.004681768,-0.008165264,1.22E-07,0,0,0,1.22E-07,0,0,0,1.22E-07,0.71588545,-0.91201845,9.8262633,9.00E-08,0,0,0,9.00E-08,0,0,0,9.00E-08
1616766029,123658,1616766028,109571776,fcu,-0.035828882,0.026131391,-0.992146695,-0.116954596,1,0,0,0,1,0,0,0,1,-0.022290267,0.006642712,-0.003593371,1.22E-07,0,0,0,1.22E-07,0,0,0,1.22E-07,0.42168595,-0.8629852,9.8458766,9.00E-08,0,0,0,9.00E-08,0,0,0,9.00E-08
1616766029,123659,1616766028,148571776,fcu,-0.035744248,0.026028595,-0.992154329,-0.116938654,1,0,0,0,1,0,0,0,1,-0.011703374,0.004565289,-0.001155355,1.22E-07,0,0,0,1.22E-07,0,0,0,1.22E-07,-0.22555295,-1.04931155,9.95374975,9.00E-08,0,0,0,9.00E-08,0,0,0,9.00E-08
1616766029,123660,1616766028,188571776,fcu,-0.03583911,0.025616765,-0.992160815,-0.116945532,1,0,0,0,1,0,0,0,1,0.004027999,0.004697187,-0.000101231,1.22E-07,0,0,0,1.22E-07,0,0,0,1.22E-07,-0.1176798,-0.3138128,9.83606995,9.00E-08,0,0,0,9.00E-08,0,0,0,9.00E-08
1616766029,123661,1616766028,228571776,fcu,-0.03573825,0.025469111,-0.99215241,-0.117079878,1,0,0,0,1,0,0,0,1,0.011448843,0.001902085,-0.00205557,1.22E-07,0,0,0,1.22E-07,0,0,0,1.22E-07,0.2353596,-0.08825985,9.6497436,9.00E-08,0,0,0,9.00E-08,0,0,0,9.00E-08
1616766029,123662,1616766028,268571776,fcu,-0.035833979,0.025246583,-0.992158008,-0.11705137,1,0,0,0,1,0,0,0,1,0.010678173,0.000312055,-0.00296422,1.22E-07,0,0,0,1.22E-07,0,0,0,1.22E-07,0.5491724,-0.3334261,9.65955025,9.00E-08,0,0,0,9.00E-08,0,0,0,9.00E-08
1616766029,123663,1616766028,309571776,fcu,-0.035885476,0.025075602,-0.992172056,-0.11695323,1,0,0,0,1,0,0,0,1,0.00972192,0.000388533,0.000703495,1.22E-07,0,0,0,1.22E-07,0,0,0,1.22E-07,0.51975245,-0.2549729,9.81645665,9.00E-08,0,0,0,9.00E-08,0,0,0,9.00E-08
1616766029,123664,1616766028,348571776,fcu,-0.035819899,0.025000936,-0.99216192,-0.117075246,1,0,0,0,1,0,0,0,1,0.005861993,-0.000119768,0.00031707,1.22E-07,0,0,0,1.22E-07,0,0,0,1.22E-07,0.3334261,-0.24516625,9.79684335,9.00E-08,0,0,0,9.00E-08,0,0,0,9.00E-08
1616766029,123665,1616766028,389571776,fcu,-0.035948388,0.02477322,-0.992140446,-0.117266091,1,0,0,0,1,0,0,0,1,0.004456411,-3.13E-06,-0.005259362,1.22E-07,0,0,0,1.22E-07,0,0,0,1.22E-07,0.2157463,-0.4903325,9.7674234,9.00E-08,0,0,0,9.00E-08,0,0,0,9.00E-08
1616766029,123666,1616766028,428571776,fcu,-0.035830724,0.024511182,-0.992135948,-0.117395156,1,0,0,0,1,0,0,0,1,0.006737241,0.002257712,-0.008397151,1.22E-07,0,0,0,1.22E-07,0,0,0,1.22E-07,0.588399,-0.5099458,9.8654899,9.00E-08,0,0,0,9.00E-08,0,0,0,9.00E-08
1616766029,123667,1616766028,468571776,fcu,-0.03582487,0.024215431,-0.992140643,-0.117418637,1,0,0,0,1,0,0,0,1,0.010831242,0.003124956,-0.00599857,1.22E-07,0,0,0,1.22E-07,0,0,0,1.22E-07,0.8825985,0.02941995,9.7674234,9.00E-08,0,0,0,9.00E-08,0,0,0,9.00E-08
1616766029,123668,1616766028,509571776,fcu,-0.035802023,0.024146215,-0.992129159,-0.117536837,1,0,0,0,1,0,0,0,1,0.008129378,0.003507972,-0.004910237,1.22E-07,0,0,0,1.22E-07,0,0,0,1.22E-07,0.5295591,-0.16671305,9.79684335,9.00E-08,0,0,0,9.00E-08,0,0,0,9.00E-08
1616766029,123669,1616766028,548571776,fcu,-0.03559385,0.024028826,-0.992131305,-0.117605982,1,0,0,0,1,0,0,0,1,0.003005542,0.005822936,-0.003961915,1.22E-07,0,0,0,1.22E-07,0,0,0,1.22E-07,0.40207265,-0.16671305,9.75761675,9.00E-08,0,0,0,9.00E-08,0,0,0,9.00E-08
1616766029,123670,1616766028,589571776,fcu,-0.035344332,0.023818397,-0.992108555,-0.117915549,1,0,0,0,1,0,0,0,1,0.001496503,0.011081504,-0.006910477,1.22E-07,0,0,0,1.22E-07,0,0,0,1.22E-07,0.67665885,-0.12748645,9.79684335,9.00E-08,0,0,0,9.00E-08,0,0,0,9.00E-08
1616766029,123671,1616766028,628571776,fcu,-0.035130364,0.023712644,-0.99208581,-0.118191852,1,0,0,0,1,0,0,0,1,-0.000597642,0.012648787,-0.011331066,1.22E-07,0,0,0,1.22E-07,0,0,0,1.22E-07,0.8237586,-0.4511059,9.7674234,9.00E-08,0,0,0,9.00E-08,0,0,0,9.00E-08
1616766029,123672,1616766028,669571776,fcu,-0.035007814,0.023600319,-0.992068771,-0.118393542,1,0,0,0,1,0,0,0,1,-0.001224212,0.012698554,-0.012744198,1.22E-07,0,0,0,1.22E-07,0,0,0,1.22E-07,0.55897905,-0.2157463,9.8851032,9.00E-08,0,0,0,9.00E-08,0,0,0,9.00E-08
1616766029,123673,1616766028,709571776,fcu,-0.034663935,0.023522637,-0.992065123,-0.118540663,1,0,0,0,1,0,0,0,1,-0.002615517,0.013423109,-0.010301222,1.22E-07,0,0,0,1.22E-07,0,0,0,1.22E-07,0.1765197,-0.0392266,9.79684335,9.00E-08,0,0,0,9.00E-08,0,0,0,9.00E-08
1616766029,123674,1616766028,748571776,fcu,-0.034588316,0.023636169,-0.992055398,-0.118621526,1,0,0,0,1,0,0,0,1,-0.005877299,0.01166556,-0.007500224,1.22E-07,0,0,0,1.22E-07,0,0,0,1.22E-07,0.26477955,-0.5099458,9.9439431,9.00E-08,0,0,0,9.00E-08,0,0,0,9.00E-08
1616766029,123675,1616766028,789571776,fcu,-0.034302522,0.023637745,-0.992062459,-0.118645147,1,0,0,0,1,0,0,0,1,-0.008002708,0.011850292,-0.003218819,1.22E-07,0,0,0,1.22E-07,0,0,0,1.22E-07,0.588399,-0.42168595,9.7674234,9.00E-08,0,0,0,9.00E-08,0,0,0,9.00E-08
1616766029,123676,1616766028,828571776,fcu,-0.034160947,0.023494189,-0.992066351,-0.118681962,1,0,0,0,1,0,0,0,1,-0.005564566,0.010339098,-0.001593408,1.22E-07,0,0,0,1.22E-07,0,0,0,1.22E-07,0.26477955,-0.38245935,9.8262633,9.00E-08,0,0,0,9.00E-08,0,0,0,9.00E-08
1616766029,123677,1616766028,869571776,fcu,-0.035183345,0.023467062,-0.992021783,-0.11876115,1,0,0,0,1,0,0,0,1,-0.001803703,-0.005956996,-0.002135506,1.22E-07,0,0,0,1.22E-07,0,0,0,1.22E-07,-1.02969825,-0.77472535,10.05181625,9.00E-08,0,0,0,9.00E-08,0,0,0,9.00E-08
1616766029,123678,1616766028,908571776,fcu,-0.03558136,0.023203328,-0.992027039,-0.118650441,1,0,0,0,1,0,0,0,1,0.004286172,-0.023783261,-0.001257509,1.22E-07,0,0,0,1.22E-07,0,0,0,1.22E-07,-2.0397832,-0.69627215,10.52253545,9.00E-08,0,0,0,9.00E-08,0,0,0,9.00E-08
1616766029,123679,1616766028,948571776,fcu,-0.035976442,0.0224174,-0.992092244,-0.118136086,1,0,0,0,1,0,0,0,1,0.01833134,-0.032029778,0.008806341,1.22E-07,0,0,0,1.22E-07,0,0,0,1.22E-07,0.3726527,0.00980665,9.6889702,9.00E-08,0,0,0,9.00E-08,0,0,0,9.00E-08
1616766029,123680,1616766028,988571776,fcu,-0.035776774,0.022116027,-0.992141158,-0.117842378,1,0,0,0,1,0,0,0,1,0.02330531,-0.004949266,0.017089302,1.22E-07,0,0,0,1.22E-07,0,0,0,1.22E-07,3.01064155,0.36284605,9.1201845,9.00E-08,0,0,0,9.00E-08,0,0,0,9.00E-08
1616766029,123681,1616766029,28571776,fcu,-0.035540975,0.022092966,-0.992161594,-0.117745965,1,0,0,0,1,0,0,0,1,0.011165522,0.000367768,0.013856469,1.22E-07,0,0,0,1.22E-07,0,0,0,1.22E-07,2.99102825,-0.48052585,8.89463155,9.00E-08,0,0,0,9.00E-08,0,0,0,9.00E-08
1616766029,123682,1616766029,69571776,fcu,-0.035742918,0.021952836,-0.992202126,-0.117368894,1,0,0,0,1,0,0,0,1,0.001861419,0.005208042,0.013514521,1.22E-07,0,0,0,1.22E-07,0,0,0,1.22E-07,-0.00980665,-0.588399,10.0420096,9.00E-08,0,0,0,9.00E-08,0,0,0,9.00E-08
1616766029,123683,1616766029,108571776,fcu,-0.035276144,0.021623276,-0.992229677,-0.117338378,1,0,0,0,1,0,0,0,1,0.00463098,0.00995199,0.010799327,1.22E-07,0,0,0,1.22E-07,0,0,0,1.22E-07,-1.57887065,0.0784532,10.1204628,9.00E-08,0,0,0,9.00E-08,0,0,0,9.00E-08
1616766029,123684,1616766029,149571776,fcu,-0.035445273,0.021380887,-0.992241178,-0.117234527,1,0,0,0,1,0,0,0,1,0.007138934,0.007459382,0.005891928,1.22E-07,0,0,0,1.22E-07,0,0,0,1.22E-07,-0.6276256,-0.2549729,9.8262633,9.00E-08,0,0,0,9.00E-08,0,0,0,9.00E-08
1616766029,123685,1616766029,189571776,fcu,-0.035384975,0.021145163,-0.992303946,-0.11676328,1,0,0,0,1,0,0,0,1,0.008276362,0.005289415,0.009497551,1.22E-07,0,0,0,1.22E-07,0,0,0,1.22E-07,1.0395049,-0.588399,10.002783,9.00E-08,0,0,0,9.00E-08,0,0,0,9.00E-08
1616766029,123686,1616766029,228571776,fcu,-0.035378821,0.020780842,-0.992384057,-0.116148093,1,0,0,0,1,0,0,0,1,0.011717447,0.001759054,0.020534605,1.22E-07,0,0,0,1.22E-07,0,0,0,1.22E-07,2.01036325,-1.10815145,9.9831697,9.00E-08,0,0,0,9.00E-08,0,0,0,9.00E-08
1616766029,123687,1616766029,268571776,fcu,-0.035278821,0.02022686,-0.992457096,-0.115651165,1,0,0,0,1,0,0,0,1,0.017867586,0.004656421,0.026420614,1.22E-07,0,0,0,1.22E-07,0,0,0,1.22E-07,1.28467115,-0.95124505,9.73800345,9.00E-08,0,0,0,9.00E-08,0,0,0,9.00E-08
1616766029,123688,1616766029,309571776,fcu,-0.035250323,0.019368761,-0.992505587,-0.115390323,1,0,0,0,1,0,0,0,1,0.02796836,0.005874157,0.02257745,1.22E-07,0,0,0,1.22E-07,0,0,0,1.22E-07,-0.16671305,-0.7649187,9.7281968,9.00E-08,0,0,0,9.00E-08,0,0,0,9.00E-08
1616766029,123689,1616766029,348571776,fcu,-0.035202766,0.01811435,-0.992575625,-0.115005495,1,0,0,0,1,0,0,0,1,0.044211503,0.00749843,0.017118385,1.22E-07,0,0,0,1.22E-07,0,0,0,1.22E-07,-0.30400615,-0.8433719,9.71839015,9.00E-08,0,0,0,9.00E-08,0,0,0,9.00E-08
1616766029,123690,1616766029,389571776,fcu,-0.035375066,0.016760747,-0.992681029,-0.1142456,1,0,0,0,1,0,0,0,1,0.06098184,0.007415932,0.022450337,1.22E-07,0,0,0,1.22E-07,0,0,0,1.22E-07,0.4707192,-0.08825985,9.6301303,9.00E-08,0,0,0,9.00E-08,0,0,0,9.00E-08
1616766029,123691,1616766029,428571776,fcu,-0.035443276,0.015762408,-0.992761504,-0.113665815,1,0,0,0,1,0,0,0,1,0.063981198,0.002880597,0.027876431,1.22E-07,0,0,0,1.22E-07,0,0,0,1.22E-07,0.8433719,0.9022118,9.7478101,9.00E-08,0,0,0,9.00E-08,0,0,0,9.00E-08
1616766029,123692,1616766029,468571776,fcu,-0.035591312,0.015400986,-0.992812545,-0.113222433,1,0,0,0,1,0,0,0,1,0.048732772,-0.000412725,0.027146939,1.22E-07,0,0,0,1.22E-07,0,0,0,1.22E-07,0.7060788,1.3140911,9.85568325,9.00E-08,0,0,0,9.00E-08,0,0,0,9.00E-08
1616766030,123693,1616766029,509571776,fcu,-0.035398777,0.015656011,-0.992853616,-0.112887168,1,0,0,0,1,0,0,0,1,0.019668682,0.000444662,0.022663428,1.22E-07,0,0,0,1.22E-07,0,0,0,1.22E-07,0.4118793,1.6671305,9.7870367,9.00E-08,0,0,0,9.00E-08,0,0,0,9.00E-08
1616766030,123694,1616766029,548571776,fcu,-0.035341162,0.016659911,-0.992838997,-0.112890108,1,0,0,0,1,0,0,0,1,-0.015173028,0.00272513,0.013830564,1.22E-07,0,0,0,1.22E-07,0,0,0,1.22E-07,-0.0980665,1.69655045,9.95374975,9.00E-08,0,0,0,9.00E-08,0,0,0,9.00E-08
1616766030,123695,1616766029,589571776,fcu,-0.035089115,0.018054671,-0.992817825,-0.112940468,1,0,0,0,1,0,0,0,1,-0.049329776,0.002527012,0.00455366,1.22E-07,0,0,0,1.22E-07,0,0,0,1.22E-07,-0.0784532,0.65704555,9.93413645,9.00E-08,0,0,0,9.00E-08,0,0,0,9.00E-08
1616766030,123696,1616766029,628571776,fcu,-0.034940244,0.019490509,-0.992807061,-0.112842543,1,0,0,0,1,0,0,0,1,-0.069906518,0.002516326,0.002725644,1.22E-07,0,0,0,1.22E-07,0,0,0,1.22E-07,0.2941995,-0.4903325,10.05181625,9.00E-08,0,0,0,9.00E-08,0,0,0,9.00E-08
1616766030,123697,1616766029,668571776,fcu,-0.034647407,0.020692838,-0.992795759,-0.112818194,1,0,0,0,1,0,0,0,1,-0.074773066,0.003822928,0.003524207,1.22E-07,0,0,0,1.22E-07,0,0,0,1.22E-07,0.7060788,-1.6475172,9.9439431,9.00E-08,0,0,0,9.00E-08,0,0,0,9.00E-08
1616766030,123698,1616766029,709571776,fcu,-0.034369851,0.021173264,-0.992813325,-0.11265926,1,0,0,0,1,0,0,0,1,-0.058223035,0.007158739,0.005286928,1.22E-07,0,0,0,1.22E-07,0,0,0,1.22E-07,1.01008495,-2.38301595,9.77723005,9.00E-08,0,0,0,9.00E-08,0,0,0,9.00E-08
1616766030,123699,1616766029,748571776,fcu,-0.034197901,0.020974991,-0.992837292,-0.112537395,1,0,0,0,1,0,0,0,1,-0.027475705,0.009965161,0.007284708,1.22E-07,0,0,0,1.22E-07,0,0,0,1.22E-07,0.7649187,-1.9024901,9.54187045,9.00E-08,0,0,0,9.00E-08,0,0,0,9.00E-08
1616766030,123700,1616766029,789571776,fcu,-0.034056335,0.020116653,-0.992877629,-0.112381049,1,0,0,0,1,0,0,0,1,0.007657388,0.011105906,0.006950007,1.22E-07,0,0,0,1.22E-07,0,0,0,1.22E-07,-0.0392266,-1.44157755,9.6497436,9.00E-08,0,0,0,9.00E-08,0,0,0,9.00E-08
1616766030,123701,1616766029,828571776,fcu,-0.033500031,0.018945353,-0.99295685,-0.112051396,1,0,0,0,1,0,0,0,1,0.037622828,0.018628292,0.009984396,1.22E-07,0,0,0,1.22E-07,0,0,0,1.22E-07,0.5295591,-0.5099458,9.5712904,9.00E-08,0,0,0,9.00E-08,0,0,0,9.00E-08
1616766030,123702,1616766029,868571776,fcu,-0.03270998,0.01766173,-0.993075153,-0.111444434,1,0,0,0,1,0,0,0,1,0.055853952,0.03674956,0.017914206,1.22E-07,0,0,0,1.22E-07,0,0,0,1.22E-07,1.6475172,0.3138128,9.5320638,9.00E-08,0,0,0,9.00E-08,0,0,0,9.00E-08
1616766030,123703,1616766029,909571776,fcu,-0.032278924,0.01708123,-0.993149966,-0.110993008,1,0,0,0,1,0,0,0,1,0.051679503,0.037214823,0.024016283,1.22E-07,0,0,0,1.22E-07,0,0,0,1.22E-07,1.176798,0.8825985,9.62032365,9.00E-08,0,0,0,9.00E-08,0,0,0,9.00E-08
1616766030,123704,1616766029,948571776,fcu,-0.032378845,0.016792435,-0.993244316,-0.110160582,1,0,0,0,1,0,0,0,1,0.03319183,0.024635211,0.030408448,1.22E-07,0,0,0,1.22E-07,0,0,0,1.22E-07,-1.2160246,0.46091255,10.395049,9.00E-08,0,0,0,9.00E-08,0,0,0,9.00E-08
1616766030,123705,1616766029,989571776,fcu,-0.032222879,0.016826943,-0.993307828,-0.10962709,1,0,0,0,1,0,0,0,1,0.01539413,0.006396174,0.035526112,1.22E-07,0,0,0,1.22E-07,0,0,0,1.22E-07,-1.8436502,1.46119085,10.56176205,9.00E-08,0,0,0,9.00E-08,0,0,0,9.00E-08
1616766030,123706,1616766030,28571776,fcu,-0.032491592,0.017505017,-0.993253598,-0.109932529,1,0,0,0,1,0,0,0,1,-0.009128942,-0.003209863,0.017947543,1.22E-07,0,0,0,1.22E-07,0,0,0,1.22E-07,-0.16671305,0.51975245,10.3754357,9.00E-08,0,0,0,9.00E-08,0,0,0,9.00E-08
1616766030,123707,1616766030,68571776,fcu,-0.032425679,0.017973447,-0.993299439,-0.109461205,1,0,0,0,1,0,0,0,1,-0.025919257,-0.007096913,0.007654379,1.22E-07,0,0,0,1.22E-07,0,0,0,1.22E-07,1.372931,-1.0787315,9.5516771,9.00E-08,0,0,0,9.00E-08,0,0,0,9.00E-08
1616766030,123708,1616766030,109571776,fcu,-0.032561071,0.018477345,-0.993381796,-0.108586242,1,0,0,0,1,0,0,0,1,-0.028058307,-0.009506006,0.023288457,1.22E-07,0,0,0,1.22E-07,0,0,0,1.22E-07,1.6867438,0.2157463,9.4928372,9.00E-08,0,0,0,9.00E-08,0,0,0,9.00E-08
1616766030,123709,1616766030,148571776,fcu,-0.032416088,0.019157722,-0.993404809,-0.108300808,1,0,0,0,1,0,0,0,1,-0.030678254,-0.003226748,0.02746742,1.22E-07,0,0,0,1.22E-07,0,0,0,1.22E-07,0.42168595,0.02941995,9.54187045,9.00E-08,0,0,0,9.00E-08,0,0,0,9.00E-08
1616766030,123710,1616766030,189571776,fcu,-0.032290932,0.019733231,-0.993443033,-0.107883436,1,0,0,0,1,0,0,0,1,-0.032946192,-0.001694934,0.023785083,1.22E-07,0,0,0,1.22E-07,0,0,0,1.22E-07,-1.02969825,-0.9610517,9.71839015,9.00E-08,0,0,0,9.00E-08,0,0,0,9.00E-08
1616766030,123711,1616766030,228571776,fcu,-0.032239543,0.019989654,-0.993473395,-0.107571549,1,0,0,0,1,0,0,0,1,-0.026041752,0.002563627,0.020862948,1.22E-07,0,0,0,1.22E-07,0,0,0,1.22E-07,-0.5099458,-0.8629852,9.7870367,9.00E-08,0,0,0,9.00E-08,0,0,0,9.00E-08
1616766030,123712,1616766030,268571776,fcu,-0.032370694,0.019906052,-0.993493619,-0.107360686,1,0,0,0,1,0,0,0,1,-0.012987896,-0.000796305,0.015983906,1.22E-07,0,0,0,1.22E-07,0,0,0,1.22E-07,0.51975245,-1.2552512,9.87529655,9.00E-08,0,0,0,9.00E-08,0,0,0,9.00E-08
1616766030,123713,1616766030,309571776,fcu,-0.032484293,0.01949157,-0.993559554,-0.106790737,1,0,0,0,1,0,0,0,1,0.005604869,-0.00485573,0.017431125,1.22E-07,0,0,0,1.22E-07,0,0,0,1.22E-07,1.0198916,-0.57859235,9.97336305,9.00E-08,0,0,0,9.00E-08,0,0,0,9.00E-08
1616766030,123714,1616766030,348571776,fcu,-0.032487318,0.019200907,-0.993615488,-0.106321027,1,0,0,0,1,0,0,0,1,0.017178398,-0.002506914,0.021969954,1.22E-07,0,0,0,1.22E-07,0,0,0,1.22E-07,0.85317855,0.10787315,9.8458766,9.00E-08,0,0,0,9.00E-08,0,0,0,9.00E-08
1616766030,123715,1616766030,389571776,fcu,-0.032331249,0.019079893,-0.993669122,-0.105888265,1,0,0,0,1,0,0,0,1,0.015920302,0.000502966,0.022668365,1.22E-07,0,0,0,1.22E-07,0,0,0,1.22E-07,0.26477955,-0.0784532,9.7478101,9.00E-08,0,0,0,9.00E-08,0,0,0,9.00E-08
1616766030,123716,1616766030,428571776,fcu,-0.032422316,0.018995257,-0.993709347,-0.105497427,1,0,0,0,1,0,0,0,1,0.011564136,0.003958251,0.022823591,1.22E-07,0,0,0,1.22E-07,0,0,0,1.22E-07,-0.30400615,-0.0784532,9.8262633,9.00E-08,0,0,0,9.00E-08,0,0,0,9.00E-08
1616766030,123717,1616766030,468571776,fcu,-0.032397848,0.018897686,-0.99373022,-0.10532572,1,0,0,0,1,0,0,0,1,0.007854048,0.001068039,0.01818094,1.22E-07,0,0,0,1.22E-07,0,0,0,1.22E-07,-0.16671305,-0.196133,9.75761675,9.00E-08,0,0,0,9.00E-08,0,0,0,9.00E-08
1616766031,123718,1616766030,509571776,fcu,-0.032565849,0.018707161,-0.99375122,-0.105109562,1,0,0,0,1,0,0,0,1,0.007988054,-0.002904374,0.01148363,1.22E-07,0,0,0,1.22E-07,0,0,0,1.22E-07,0.85317855,-0.51975245,9.81645665,9.00E-08,0,0,0,9.00E-08,0,0,0,9.00E-08
1616766031,123719,1616766030,548571776,fcu,-0.032403259,0.018571194,-0.993783476,-0.104878704,1,0,0,0,1,0,0,0,1,0.009850532,0.000986705,0.010587699,1.22E-07,0,0,0,1.22E-07,0,0,0,1.22E-07,1.22583125,-0.16671305,9.7870367,9.00E-08,0,0,0,9.00E-08,0,0,0,9.00E-08
1616766031,123720,1616766030,589571776,fcu,-0.032269496,0.018529022,-0.993810577,-0.104670397,1,0,0,0,1,0,0,0,1,0.009971661,0.00359221,0.010256403,1.22E-07,0,0,0,1.22E-07,0,0,0,1.22E-07,0.77472535,-0.46091255,9.8654899,9.00E-08,0,0,0,9.00E-08,0,0,0,9.00E-08
1616766031,123721,1616766030,628571776,fcu,-0.031963032,0.018398487,-0.993869274,-0.104229203,1,0,0,0,1,0,0,0,1,0.010964309,0.011047905,0.013541706,1.22E-07,0,0,0,1.22E-07,0,0,0,1.22E-07,0.2549729,-0.24516625,9.93413645,9.00E-08,0,0,0,9.00E-08,0,0,0,9.00E-08
1616766031,123722,1616766030,668571776,fcu,-0.031721824,0.018490932,-0.993888628,-0.104101907,1,0,0,0,1,0,0,0,1,0.008467888,0.013074171,0.014458453,1.22E-07,0,0,0,1.22E-07,0,0,0,1.22E-07,-0.0196133,0.34323275,9.9439431,9.00E-08,0,0,0,9.00E-08,0,0,0,9.00E-08
1616766031,123723,1616766030,709571776,fcu,-0.031398902,0.018743898,-0.993906141,-0.103987296,1,0,0,0,1,0,0,0,1,0.001491541,0.015247326,0.00949891,1.22E-07,0,0,0,1.22E-07,0,0,0,1.22E-07,0.1176798,0.2745862,9.6889702,9.00E-08,0,0,0,9.00E-08,0,0,0,9.00E-08
1616766031,123724,1616766030,748571776,fcu,-0.031213974,0.019179394,-0.993970982,-0.103341789,1,0,0,0,1,0,0,0,1,-0.006809927,0.012103654,0.016209714,1.22E-07,0,0,0,1.22E-07,0,0,0,1.22E-07,0.2157463,0.2353596,9.63993695,9.00E-08,0,0,0,9.00E-08,0,0,0,9.00E-08
1616766031,123725,1616766030,789571776,fcu,-0.031226794,0.019895391,-0.994007082,-0.102854175,1,0,0,0,1,0,0,0,1,-0.017043639,0.007126706,0.024300274,1.22E-07,0,0,0,1.22E-07,0,0,0,1.22E-07,0.10787315,0.2941995,9.7281968,9.00E-08,0,0,0,9.00E-08,0,0,0,9.00E-08
1616766031,123726,1616766030,828571776,fcu,-0.031057857,0.020562695,-0.994028512,-0.102566571,1,0,0,0,1,0,0,0,1,-0.025048982,0.002796937,0.023151994,1.22E-07,0,0,0,1.22E-07,0,0,0,1.22E-07,0.1569064,-0.44129925,9.8262633,9.00E-08,0,0,0,9.00E-08,0,0,0,9.00E-08
1616766031,123727,1616766030,868571776,fcu,-0.030922885,0.021144521,-0.994054592,-0.102235774,1,0,0,0,1,0,0,0,1,-0.025884617,0.001029933,0.020477125,1.22E-07,0,0,0,1.22E-07,0,0,0,1.22E-07,0.77472535,-0.67665885,9.63993695,9.00E-08,0,0,0,9.00E-08,0,0,0,9.00E-08
1616766031,123728,1616766030,909571776,fcu,-0.030868699,0.021472851,-0.994092967,-0.101809687,1,0,0,0,1,0,0,0,1,-0.021001402,0.004109532,0.018077409,1.22E-07,0,0,0,1.22E-07,0,0,0,1.22E-07,0.8629852,-0.85317855,9.73800345,9.00E-08,0,0,0,9.00E-08,0,0,0,9.00E-08
1616766031,123729,1616766030,948571776,fcu,-0.030640217,0.02169101,-0.994158264,-0.101192999,1,0,0,0,1,0,0,0,1,-0.010973061,0.004280504,0.023221593,1.22E-07,0,0,0,1.22E-07,0,0,0,1.22E-07,0.196133,-0.7060788,9.5712904,9.00E-08,0,0,0,9.00E-08,0,0,0,9.00E-08
1616766031,123730,1616766030,989571776,fcu,-0.030829264,0.021851242,-0.994198578,-0.100703856,1,0,0,0,1,0,0,0,1,-0.004243684,0.000950024,0.026888724,1.22E-07,0,0,0,1.22E-07,0,0,0,1.22E-07,-0.1569064,-0.4511059,9.87529655,9.00E-08,0,0,0,9.00E-08,0,0,0,9.00E-08
1616766031,123731,1616766031,28571776,fcu,-0.03075058,0.021690692,-0.994243595,-0.100317446,1,0,0,0,1,0,0,0,1,0.003184166,0.000210492,0.02474072,1.22E-07,0,0,0,1.22E-07,0,0,0,1.22E-07,0.1176798,-1.0002783,9.8851032,9.00E-08,0,0,0,9.00E-08,0,0,0,9.00E-08
1616766031,123732,1616766031,68571776,fcu,-0.030906549,0.021292212,-0.994297089,-0.099823472,1,0,0,0,1,0,0,0,1,0.014138435,-0.002173424,0.023376364,1.22E-07,0,0,0,1.22E-07,0,0,0,1.22E-07,0.85317855,-0.6080123,9.69877685,9.00E-08,0,0,0,9.00E-08,0,0,0,9.00E-08
1616766031,123733,1616766031,109571776,fcu,-0.03097079,0.020835089,-0.994353198,-0.099339953,1,0,0,0,1,0,0,0,1,0.024603764,-0.002236806,0.023633413,1.22E-07,0,0,0,1.22E-07,0,0,0,1.22E-07,1.12776475,-0.1372931,9.89490985,9.00E-08,0,0,0,9.00E-08,0,0,0,9.00E-08
1616766031,123734,1616766031,150571776,fcu,-0.030762065,0.020505144,-0.994413999,-0.098863711,1,0,0,0,1,0,0,0,1,0.027187435,0.000985987,0.023927981,1.22E-07,0,0,0,1.22E-07,0,0,0,1.22E-07,0.9022118,0.10787315,9.75761675,9.00E-08,0,0,0,9.00E-08,0,0,0,9.00E-08
1616766031,123735,1616766031,189571776,fcu,-0.030675089,0.020276705,-0.99446197,-0.098454483,1,0,0,0,1,0,0,0,1,0.022086361,0.004538391,0.022569438,1.22E-07,0,0,0,1.22E-07,0,0,0,1.22E-07,0.2941995,-0.30400615,10.13026945,9.00E-08,0,0,0,9.00E-08,0,0,0,9.00E-08
1616766031,123736,1616766031,228571776,fcu,-0.030519584,0.020132313,-0.994465019,-0.09850163,1,0,0,0,1,0,0,0,1,0.015033809,0.00900704,0.015486963,1.22E-07,0,0,0,1.22E-07,0,0,0,1.22E-07,0.2353596,0.46091255,10.32640245,9.00E-08,0,0,0,9.00E-08,0,0,0,9.00E-08
1616766031,123737,1616766031,268571776,fcu,-0.030053255,0.020211864,-0.994432093,-0.098960069,1,0,0,0,1,0,0,0,1,0.006379314,0.014656516,-0.002949143,1.22E-07,0,0,0,1.22E-07,0,0,0,1.22E-07,0.10787315,-0.5099458,10.5323421,9.00E-08,0,0,0,9.00E-08,0,0,0,9.00E-08
1616766031,123738,1616766031,308571776,fcu,-0.029538892,0.020010652,-0.994493752,-0.098535295,1,0,0,0,1,0,0,0,1,0.002300985,0.020031335,-0.00515405,1.22E-07,0,0,0,1.22E-07,0,0,0,1.22E-07,0.04903325,-0.4707192,10.0812362,9.00E-08,0,0,0,9.00E-08,0,0,0,9.00E-08
1616766031,123739,1616766031,348571776,fcu,-0.029004717,0.020004226,-0.994571716,-0.097906375,1,0,0,0,1,0,0,0,1,0.004284746,0.027721239,0.014977774,1.22E-07,0,0,0,1.22E-07,0,0,0,1.22E-07,-0.22555295,0.8629852,9.5320638,9.00E-08,0,0,0,9.00E-08,0,0,0,9.00E-08
1616766031,123740,1616766031,389571776,fcu,-0.028854736,0.020471638,-0.994564121,-0.097931229,1,0,0,0,1,0,0,0,1,-0.006683038,0.020482481,0.018064687,1.22E-07,0,0,0,1.22E-07,0,0,0,1.22E-07,-0.2745862,0.1372931,9.14960445,9.00E-08,0,0,0,9.00E-08,0,0,0,9.00E-08
1616766031,123741,1616766031,428571776,fcu,-0.029112838,0.020859937,-0.99456184,-0.097795975,1,0,0,0,1,0,0,0,1,-0.017233998,0.006966922,0.010113498,1.22E-07,0,0,0,1.22E-07,0,0,0,1.22E-07,-0.57859235,-0.6276256,9.3359308,9.00E-08,0,0,0,9.00E-08,0,0,0,9.00E-08
1616766031,123742,1616766031,468571776,fcu,-0.029229857,0.021085115,-0.99457169,-0.097612428,1,0,0,0,1,0,0,0,1,-0.016639469,-0.009209978,0.009184352,1.22E-07,0,0,0,1.22E-07,0,0,0,1.22E-07,-0.1765197,-0.12748645,9.38496405,9.00E-08,0,0,0,9.00E-08,0,0,0,9.00E-08
1616766032,123743,1616766031,509571776,fcu,-0.03005585,0.021528132,-0.994540716,-0.09758048,1,0,0,0,1,0,0,0,1,-0.016679995,-0.024742611,0.006815528,1.22E-07,0,0,0,1.22E-07,0,0,0,1.22E-07,0.44129925,-0.3726527,9.8654899,9.00E-08,0,0,0,9.00E-08,0,0,0,9.00E-08
1616766032,123744,1616766031,548571776,fcu,-0.030323538,0.021852886,-0.99446924,-0.098152251,1,0,0,0,1,0,0,0,1,-0.017776573,-0.02593334,-0.00521104,1.22E-07,0,0,0,1.22E-07,0,0,0,1.22E-07,0.9414384,-0.5099458,10.1008495,9.00E-08,0,0,0,9.00E-08,0,0,0,9.00E-08
1616766032,123745,1616766031,589571776,fcu,-0.02999907,0.021853925,-0.994407383,-0.098875768,1,0,0,0,1,0,0,0,1,-0.015419744,-0.013553049,-0.023945464,1.22E-07,0,0,0,1.22E-07,0,0,0,1.22E-07,1.52003075,-1.4317709,9.8851032,9.00E-08,0,0,0,9.00E-08,0,0,0,9.00E-08
1616766032,123746,1616766031,628571776,fcu,-0.030196775,0.021150213,-0.994463408,-0.09840403,1,0,0,0,1,0,0,0,1,0.002382435,-0.001876852,-0.01690862,1.22E-07,0,0,0,1.22E-07,0,0,0,1.22E-07,1.71616375,-1.3533177,9.6693569,9.00E-08,0,0,0,9.00E-08,0,0,0,9.00E-08
1616766032,123747,1616766031,668571776,fcu,-0.029909083,0.02069426,-0.994505639,-0.098161746,1,0,0,0,1,0,0,0,1,0.02095167,0.010126811,0.005594877,1.22E-07,0,0,0,1.22E-07,0,0,0,1.22E-07,0.77472535,0.87279185,9.8262633,9.00E-08,0,0,0,9.00E-08,0,0,0,9.00E-08
1616766032,123748,1616766031,709571776,fcu,-0.02978016,0.020672954,-0.994456953,-0.098697212,1,0,0,0,1,0,0,0,1,0.015389656,0.008606734,0.000789084,1.22E-07,0,0,0,1.22E-07,0,0,0,1.22E-07,-0.2353596,-0.0196133,9.6693569,9.00E-08,0,0,0,9.00E-08,0,0,0,9.00E-08
1616766032,123749,1616766031,748571776,fcu,-0.029737176,0.020263472,-0.994439251,-0.098973069,1,0,0,0,1,0,0,0,1,0.009045095,0.012330871,-0.010856189,1.22E-07,0,0,0,1.22E-07,0,0,0,1.22E-07,-0.24516625,-0.9022118,9.9635564,9.00E-08,0,0,0,9.00E-08,0,0,0,9.00E-08
1616766032,123750,1616766031,789571776,fcu,-0.029417071,0.019848083,-0.994437753,-0.099167758,1,0,0,0,1,0,0,0,1,0.012501935,0.010633253,-0.01283572,1.22E-07,0,0,0,1.22E-07,0,0,0,1.22E-07,0.9610517,-0.0196133,9.6301303,9.00E-08,0,0,0,9.00E-08,0,0,0,9.00E-08
1616766032,123751,1616766031,828571776,fcu,-0.029652401,0.019713876,-0.994429342,-0.099208778,1,0,0,0,1,0,0,0,1,0.011599081,0.005449854,-0.009964092,1.22E-07,0,0,0,1.22E-07,0,0,0,1.22E-07,1.2748645,0.12748645,9.8458766,9.00E-08,0,0,0,9.00E-08,0,0,0,9.00E-08
1616766032,123752,1616766031,868571776,fcu,-0.029427431,0.019785545,-0.994415609,-0.099398967,1,0,0,0,1,0,0,0,1,0.003805585,0.003209645,-0.005715774,1.22E-07,0,0,0,1.22E-07,0,0,0,1.22E-07,0.83356525,0.30400615,9.95374975,9.00E-08,0,0,0,9.00E-08,0,0,0,9.00E-08
1616766032,123753,1616766031,909571776,fcu,-0.029339232,0.019957404,-0.994372687,-0.099819195,1,0,0,0,1,0,0,0,1,-0.006828871,0.004091665,-0.011121099,1.22E-07,0,0,0,1.22E-07,0,0,0,1.22E-07,0.20593965,-0.4118793,9.89490985,9.00E-08,0,0,0,9.00E-08,0,0,0,9.00E-08
1616766032,123754,1616766031,948571776,fcu,-0.029201773,0.019914376,-0.994361561,-0.099978802,1,0,0,0,1,0,0,0,1,-0.008444026,0.006614652,-0.012584074,1.22E-07,0,0,0,1.22E-07,0,0,0,1.22E-07,0.0784532,-0.71588545,9.77723005,9.00E-08,0,0,0,9.00E-08,0,0,0,9.00E-08
1616766032,123755,1616766031,989571776,fcu,-0.029315335,0.019779891,-0.994350493,-0.100082288,1,0,0,0,1,0,0,0,1,-0.002154882,0.003517108,-0.009030961,1.22E-07,0,0,0,1.22E-07,0,0,0,1.22E-07,0.38245935,-0.22555295,9.75761675,9.00E-08,0,0,0,9.00E-08,0,0,0,9.00E-08
1616766032,123756,1616766032,28571776,fcu,-0.029413704,0.019617244,-0.994334932,-0.100239915,1,0,0,0,1,0,0,0,1,0.004058155,-0.000510812,-0.00686068,1.22E-07,0,0,0,1.22E-07,0,0,0,1.22E-07,0.7060788,-0.51975245,9.6693569,9.00E-08,0,0,0,9.00E-08,0,0,0,9.00E-08
1616766032,123757,1616766032,68571776,fcu,-0.029613818,0.019369856,-0.994317534,-0.100401557,1,0,0,0,1,0,0,0,1,0.008972519,-0.003427291,-0.006810783,1.22E-07,0,0,0,1.22E-07,0,0,0,1.22E-07,0.63743225,-0.7453054,9.4732239,9.00E-08,0,0,0,9.00E-08,0,0,0,9.00E-08
1616766032,123758,1616766032,109571776,fcu,-0.030105304,0.019165247,-0.99429285,-0.100539011,1,0,0,0,1,0,0,0,1,0.013272014,-0.011675144,-0.00762172,1.22E-07,0,0,0,1.22E-07,0,0,0,1.22E-07,-0.04903325,-1.02969825,9.2574776,9.00E-08,0,0,0,9.00E-08,0,0,0,9.00E-08
1616766032,123759,1616766032,148571776,fcu,-0.030768836,0.018676811,-0.994262883,-0.100726242,1,0,0,0,1,0,0,0,1,0.018779285,-0.022133444,-0.006460743,1.22E-07,0,0,0,1.22E-07,0,0,0,1.22E-07,-0.0784532,0.48052585,9.3163175,9.00E-08,0,0,0,9.00E-08,0,0,0,9.00E-08
1616766032,123760,1616766032,188571776,fcu,-0.0312356,0.018746257,-0.99411375,-0.102033164,1,0,0,0,1,0,0,0,1,0.017469093,-0.02577967,-0.026013797,1.22E-07,0,0,0,1.22E-07,0,0,0,1.22E-07,1.176798,0.7060788,9.93413645,9.00E-08,0,0,0,9.00E-08,0,0,0,9.00E-08
1616766032,123761,1616766032,228571776,fcu,-0.031185829,0.018938833,-0.994019342,-0.102928674,1,0,0,0,1,0,0,0,1,0.003995641,-0.018604206,-0.046723358,1.22E-07,0,0,0,1.22E-07,0,0,0,1.22E-07,2.24572285,-0.18632635,10.52253545,9.00E-08,0,0,0,9.00E-08,0,0,0,9.00E-08
1616766032,123762,1616766032,268571776,fcu,-0.030200751,0.018904895,-0.994042023,-0.10300959,1,0,0,0,1,0,0,0,1,-0.002055188,0.010078046,-0.034746718,1.22E-07,0,0,0,1.22E-07,0,0,0,1.22E-07,2.7850886,-0.32361945,11.0226746,9.00E-08,0,0,0,9.00E-08,0,0,0,9.00E-08
1616766032,123763,1616766032,309571776,fcu,-0.027593965,0.019341095,-0.994030592,-0.103767416,1,0,0,0,1,0,0,0,1,-0.011034157,0.067496076,-0.024303868,1.22E-07,0,0,0,1.22E-07,0,0,0,1.22E-07,2.81450855,0.7453054,10.0223963,9.00E-08,0,0,0,9.00E-08,0,0,0,9.00E-08
1616766032,123764,1616766032,348571776,fcu,-0.027246374,0.020199538,-0.993929614,-0.104659145,1,0,0,0,1,0,0,0,1,-0.029718267,0.079270504,-0.03237167,1.22E-07,0,0,0,1.22E-07,0,0,0,1.22E-07,-0.30400615,-1.10815145,9.69877685,9.00E-08,0,0,0,9.00E-08,0,0,0,9.00E-08
1616766032,123765,1616766032,389571776,fcu,-0.026265737,0.0202692,-0.993944399,-0.104755918,1,0,0,0,1,0,0,0,1,-0.030320885,0.060873132,-0.026565483,1.22E-07,0,0,0,1.22E-07,0,0,0,1.22E-07,-3.8834334,-0.6276256,10.34601575,9.00E-08,0,0,0,9.00E-08,0,0,0,9.00E-08
1616766032,123766,1616766032,428571776,fcu,-0.026217093,0.020575831,-0.993878238,-0.105334457,1,0,0,0,1,0,0,0,1,-0.018407321,0.034575894,-0.017897937,1.22E-07,0,0,0,1.22E-07,0,0,0,1.22E-07,-2.0790098,1.52003075,9.6301303,9.00E-08,0,0,0,9.00E-08,0,0,0,9.00E-08
1616766032,123767,1616766032,468571776,fcu,-0.025679128,0.021518136,-0.993752421,-0.106459748,1,0,0,0,1,0,0,0,1,-0.026881946,0.027784947,-0.033072487,1.22E-07,0,0,0,1.22E-07,0,0,0,1.22E-07,0.9218251,0.00980665,9.09076455,9.00E-08,0,0,0,9.00E-08,0,0,0,9.00E-08
1616766033,123768,1616766032,509571776,fcu,-0.025673549,0.022374952,-0.993655477,-0.107186859,1,0,0,0,1,0,0,0,1,-0.038617339,0.01086908,-0.040489305,1.22E-07,0,0,0,1.22E-07,0,0,0,1.22E-07,2.83412185,-1.8828768,9.1986377,9.00E-08,0,0,0,9.00E-08,0,0,0,9.00E-08
1616766033,123769,1616766032,548571776,fcu,-0.025871708,0.022890337,-0.993576703,-0.107759092,1,0,0,0,1,0,0,0,1,-0.036937602,0.003119314,-0.035578407,1.22E-07,0,0,0,1.22E-07,0,0,0,1.22E-07,0.9610517,-1.52003075,10.1008495,9.00E-08,0,0,0,9.00E-08,0,0,0,9.00E-08
1616766033,123770,1616766032,589571776,fcu,-0.025512002,0.022987529,-0.993469504,-0.108807426,1,0,0,0,1,0,0,0,1,-0.025864279,-0.001838593,-0.037237074,1.22E-07,0,0,0,1.22E-07,0,0,0,1.22E-07,-1.2160246,-1.28467115,10.0812362,9.00E-08,0,0,0,9.00E-08,0,0,0,9.00E-08
1616766033,123771,1616766032,628571776,fcu,-0.025669861,0.022417635,-0.993343417,-0.110033464,1,0,0,0,1,0,0,0,1,-0.001871121,0.007521082,-0.048903648,1.22E-07,0,0,0,1.22E-07,0,0,0,1.22E-07,-1.569064,-1.20621795,10.09104285,9.00E-08,0,0,0,9.00E-08,0,0,0,9.00E-08
1616766033,123772,1616766032,668571776,fcu,-0.0257814,0.021568702,-0.993244284,-0.111067113,1,0,0,0,1,0,0,0,1,0.024728758,0.003586326,-0.055664156,1.22E-07,0,0,0,1.22E-07,0,0,0,1.22E-07,-0.20593965,-0.91201845,9.4732239,9.00E-08,0,0,0,9.00E-08,0,0,0,9.00E-08
1616766033,123773,1616766032,709538752,fcu,-0.026443304,0.020789232,-0.993154649,-0.11185885,1,0,0,0,1,0,0,0,1,0.041154705,-0.007010076,-0.051745802,1.22E-07,0,0,0,1.22E-07,0,0,0,1.22E-07,1.3925443,-0.4511059,9.4732239,9.00E-08,0,0,0,9.00E-08,0,0,0,9.00E-08
1616766033,123774,1616766032,748538752,fcu,-0.026656773,0.020109424,-0.993080774,-0.112585984,1,0,0,0,1,0,0,0,1,0.044628892,-0.012397757,-0.043484449,1.22E-07,0,0,0,1.22E-07,0,0,0,1.22E-07,1.40235095,0.2549729,9.6497436,9.00E-08,0,0,0,9.00E-08,0,0,0,9.00E-08
1616766033,123775,1616766032,789538752,fcu,-0.026749861,0.019666529,-0.992968125,-0.113630871,1,0,0,0,1,0,0,0,1,0.035821006,-0.009844888,-0.042255938,1.22E-07,0,0,0,1.22E-07,0,0,0,1.22E-07,0.6472389,0.02941995,9.85568325,9.00E-08,0,0,0,9.00E-08,0,0,0,9.00E-08
1616766033,123776,1616766032,828538752,fcu,-0.026850816,0.019309108,-0.992850842,-0.114688258,1,0,0,0,1,0,0,0,1,0.024427781,-0.002485605,-0.047853284,1.22E-07,0,0,0,1.22E-07,0,0,0,1.22E-07,-0.0392266,-0.0784532,9.8458766,9.00E-08,0,0,0,9.00E-08,0,0,0,9.00E-08
1616766033,123777,1616766032,869538752,fcu,-0.027028615,0.0190034,-0.992715476,-0.11586332,1,0,0,0,1,0,0,0,1,0.018106353,-0.001998823,-0.053873062,1.22E-07,0,0,0,1.22E-07,0,0,0,1.22E-07,-0.3334261,-0.00980665,10.0812362,9.00E-08,0,0,0,9.00E-08,0,0,0,9.00E-08
1616766033,123778,1616766032,908538752,fcu,-0.027161854,0.018958191,-0.992575617,-0.117031898,1,0,0,0,1,0,0,0,1,0.011244332,-0.004399925,-0.057046834,1.22E-07,0,0,0,1.22E-07,0,0,0,1.22E-07,0.00980665,0.44129925,9.85568325,9.00E-08,0,0,0,9.00E-08,0,0,0,9.00E-08
1616766033,123779,1616766032,948538752,fcu,-0.027485656,0.019281247,-0.992433599,-0.118103024,1,0,0,0,1,0,0,0,1,-0.000815228,-0.009518616,-0.057684276,1.22E-07,0,0,0,1.22E-07,0,0,0,1.22E-07,0.44129925,-0.00980665,9.83606995,9.00E-08,0,0,0,9.00E-08,0,0,0,9.00E-08
1616766033,123780,1616766032,989538752,fcu,-0.027539182,0.019472337,-0.992344733,-0.118803843,1,0,0,0,1,0,0,0,1,-0.008532979,-0.010597371,-0.048994206,1.22E-07,0,0,0,1.22E-07,0,0,0,1.22E-07,0.9610517,-0.40207265,9.85568325,9.00E-08,0,0,0,9.00E-08,0,0,0,9.00E-08
1616766033,123781,1616766033,28538752,fcu,-0.027679771,0.019806719,-0.992235533,-0.119625129,1,0,0,0,1,0,0,0,1,-0.011942769,-0.010181533,-0.040324721,1.22E-07,0,0,0,1.22E-07,0,0,0,1.22E-07,0.7060788,-0.44129925,9.610517,9.00E-08,0,0,0,9.00E-08,0,0,0,9.00E-08
1616766033,123782,1616766033,68538752,fcu,-0.0278767,0.019924371,-0.992089647,-0.1207644,1,0,0,0,1,0,0,0,1,-0.011672793,-0.009521822,-0.043726984,1.22E-07,0,0,0,1.22E-07,0,0,0,1.22E-07,-0.22555295,-0.36284605,9.8851032,9.00E-08,0,0,0,9.00E-08,0,0,0,9.00E-08
1616766033,123783,1616766033,108538752,fcu,-0.027969773,0.019806039,-0.991956544,-0.12185084,1,0,0,0,1,0,0,0,1,-0.005467908,-0.009325257,-0.051037658,1.22E-07,0,0,0,1.22E-07,0,0,0,1.22E-07,-0.02941995,-0.9414384,10.0223963,9.00E-08,0,0,0,9.00E-08,0,0,0,9.00E-08
1616766033,123784,1616766033,148538752,fcu,-0.028016912,0.019551563,-0.991843661,-0.122796339,1,0,0,0,1,0,0,0,1,0.006731205,-0.003364621,-0.051599015,1.22E-07,0,0,0,1.22E-07,0,0,0,1.22E-07,0.6080123,-0.7453054,9.8262633,9.00E-08,0,0,0,9.00E-08,0,0,0,9.00E-08
1616766033,123785,1616766033,189538752,fcu,-0.028265259,0.019300723,-0.991763176,-0.12342755,1,0,0,0,1,0,0,0,1,0.015801158,-0.007501999,-0.044984993,1.22E-07,0,0,0,1.22E-07,0,0,0,1.22E-07,0.5687857,-0.7649187,9.7085835,9.00E-08,0,0,0,9.00E-08,0,0,0,9.00E-08
1616766033,123786,1616766033,228538752,fcu,-0.028561588,0.018754203,-0.991710875,-0.123863053,1,0,0,0,1,0,0,0,1,0.023393778,-0.009431118,-0.033946119,1.22E-07,0,0,0,1.22E-07,0,0,0,1.22E-07,0.22555295,-0.40207265,9.7478101,9.00E-08,0,0,0,9.00E-08,0,0,0,9.00E-08
1616766033,123787,1616766033,268538752,fcu,-0.02847523,0.018325796,-0.991652657,-0.124411956,1,0,0,0,1,0,0,0,1,0.028759735,-0.003883418,-0.02587199,1.22E-07,0,0,0,1.22E-07,0,0,0,1.22E-07,0.3726527,0.10787315,9.46341725,9.00E-08,0,0,0,9.00E-08,0,0,0,9.00E-08
1616766033,123788,1616766033,309499840,fcu,-0.028331216,0.018007233,-0.991597319,-0.124931338,1,0,0,0,1,0,0,0,1,0.02643745,-0.000327569,-0.025725195,1.22E-07,0,0,0,1.22E-07,0,0,0,1.22E-07,0.83356525,-0.1569064,10.3165958,9.00E-08,0,0,0,9.00E-08,0,0,0,9.00E-08
1616766033,123789,1616766033,348499840,fcu,-0.02810692,0.017260245,-0.991598417,-0.125078631,1,0,0,0,1,0,0,0,1,0.028348275,0.011982569,-0.018948348,1.22E-07,0,0,0,1.22E-07,0,0,0,1.22E-07,1.22583125,-0.1176798,10.18910935,9.00E-08,0,0,0,9.00E-08,0,0,0,9.00E-08
1616766033,123790,1616766033,389499840,fcu,-0.027616399,0.017194273,-0.991549498,-0.125583776,1,0,0,0,1,0,0,0,1,0.023227375,0.019159924,-0.016057903,1.22E-07,0,0,0,1.22E-07,0,0,0,1.22E-07,0.2157463,0.44129925,10.28717585,9.00E-08,0,0,0,9.00E-08,0,0,0,9.00E-08
1616766033,123791,1616766033,428499840,fcu,-0.027291438,0.017537774,-0.991478273,-0.126168296,1,0,0,0,1,0,0,0,1,0.004173581,0.02207859,-0.022526227,1.22E-07,0,0,0,1.22E-07,0,0,0,1.22E-07,-0.67665885,0.57859235,9.56148375,9.00E-08,0,0,0,9.00E-08,0,0,0,9.00E-08
1616766033,123792,1616766033,468499840,fcu,-0.027060174,0.017775323,-0.991483417,-0.126144437,1,0,0,0,1,0,0,0,1,-0.008727482,0.019953197,-0.015836198,1.22E-07,0,0,0,1.22E-07,0,0,0,1.22E-07,-0.8433719,-0.16671305,9.3751574,9.00E-08,0,0,0,9.00E-08,0,0,0,9.00E-08
1616766034,123793,1616766033,509499840,fcu,-0.027147135,0.018296662,-0.991434936,-0.126431932,1,0,0,0,1,0,0,0,1,-0.017061384,0.004465759,-0.009122947,1.22E-07,0,0,0,1.22E-07,0,0,0,1.22E-07,0.34323275,0.50013915,9.05153795,9.00E-08,0,0,0,9.00E-08,0,0,0,9.00E-08
1616766034,123794,1616766033,548499840,fcu,-0.027573194,0.018928386,-0.991374322,-0.126721699,1,0,0,0,1,0,0,0,1,-0.024284143,-0.005359201,-0.010254495,1.22E-07,0,0,0,1.22E-07,0,0,0,1.22E-07,0.67665885,-0.71588545,9.6693569,9.00E-08,0,0,0,9.00E-08,0,0,0,9.00E-08
1616766034,123795,1616766033,589499840,fcu,-0.027568273,0.019323976,-0.991324913,-0.127049166,1,0,0,0,1,0,0,0,1,-0.024555219,-0.01625517,-0.012011536,1.22E-07,0,0,0,1.22E-07,0,0,0,1.22E-07,0.69627215,-0.7060788,9.69877685,9.00E-08,0,0,0,9.00E-08,0,0,0,9.00E-08
1616766034,123796,1616766033,628499840,fcu,-0.027842477,0.01958407,-0.9912653,-0.127414148,1,0,0,0,1,0,0,0,1,-0.019401252,-0.013219571,-0.014939059,1.22E-07,0,0,0,1.22E-07,0,0,0,1.22E-07,0.4903325,-0.7453054,10.18910935,9.00E-08,0,0,0,9.00E-08,0,0,0,9.00E-08
1616766034,123797,1616766033,668499840,fcu,-0.027496284,0.019592188,-0.991221088,-0.127831352,1,0,0,0,1,0,0,0,1,-0.011065654,-0.003197033,-0.018002326,1.22E-07,0,0,0,1.22E-07,0,0,0,1.22E-07,0.65704555,-0.73549875,10.05181625,9.00E-08,0,0,0,9.00E-08,0,0,0,9.00E-08
1616766034,123798,1616766033,709499840,fcu,-0.027689031,0.019581078,-0.991185427,-0.128067751,1,0,0,0,1,0,0,0,1,-0.002690566,0.002596941,-0.016506754,1.22E-07,0,0,0,1.22E-07,0,0,0,1.22E-07,0.4707192,-0.5687857,9.9047165,9.00E-08,0,0,0,9.00E-08,0,0,0,9.00E-08
1616766034,123799,1616766033,748499840,fcu,-0.027627319,0.019349203,-0.991179938,-0.128158772,1,0,0,0,1,0,0,0,1,0.005346278,0.002181103,-0.01160099,1.22E-07,0,0,0,1.22E-07,0,0,0,1.22E-07,0.30400615,-0.5099458,9.81645665,9.00E-08,0,0,0,9.00E-08,0,0,0,9.00E-08
1616766034,123800,1616766033,789499840,fcu,-0.02780912,0.019035241,-0.991180885,-0.12815914,1,0,0,0,1,0,0,0,1,0.012996367,0.000863014,-0.004457279,1.22E-07,0,0,0,1.22E-07,0,0,0,1.22E-07,0.42168595,-0.02941995,9.62032365,9.00E-08,0,0,0,9.00E-08,0,0,0,9.00E-08
1616766034,123801,1616766033,828499840,fcu,-0.027759532,0.01901942,-0.991158899,-0.128342145,1,0,0,0,1,0,0,0,1,0.012084292,0.001679653,-0.002927693,1.22E-07,0,0,0,1.22E-07,0,0,0,1.22E-07,0.2745862,0.1372931,9.58109705,9.00E-08,0,0,0,9.00E-08,0,0,0,9.00E-08
1616766034,123802,1616766033,868499840,fcu,-0.028137064,0.019030332,-0.991149532,-0.128330654,1,0,0,0,1,0,0,0,1,0.005505967,-0.007724129,-0.003254714,1.22E-07,0,0,0,1.22E-07,0,0,0,1.22E-07,0.12748645,-0.18632635,9.8851032,9.00E-08,0,0,0,9.00E-08,0,0,0,9.00E-08
1616766034,123803,1616766033,909499840,fcu,-0.028122575,0.0190612,-0.991180344,-0.128091049,1,0,0,0,1,0,0,0,1,0.001781579,-0.004468089,0.003510445,1.22E-07,0,0,0,1.22E-07,0,0,0,1.22E-07,0.24516625,0.18632635,10.11065615,9.00E-08,0,0,0,9.00E-08,0,0,0,9.00E-08
1616766034,123804,1616766033,948499840,fcu,-0.028059367,0.019385246,-0.991179538,-0.128062518,1,0,0,0,1,0,0,0,1,-0.005627857,-0.004515206,0.006754131,1.22E-07,0,0,0,1.22E-07,0,0,0,1.22E-07,0.57859235,0.10787315,9.60071035,9.00E-08,0,0,0,9.00E-08,0,0,0,9.00E-08
1616766034,123805,1616766033,989499840,fcu,-0.028578337,0.019825147,-0.99116378,-0.128002354,1,0,0,0,1,0,0,0,1,-0.014637521,-0.006383082,0.006330607,1.22E-07,0,0,0,1.22E-07,0,0,0,1.22E-07,0.4314926,0.0196133,9.0417313,9.00E-08,0,0,0,9.00E-08,0,0,0,9.00E-08
1616766034,123806,1616766034,28499840,fcu,-0.029580676,0.020401502,-0.991098911,-0.128186235,1,0,0,0,1,0,0,0,1,-0.018659798,-0.027482439,0.00095796,1.22E-07,0,0,0,1.22E-07,0,0,0,1.22E-07,-0.46091255,-0.42168595,8.65927195,9.00E-08,0,0,0,9.00E-08,0,0,0,9.00E-08
1616766034,123807,1616766034,69499840,fcu,-0.030684842,0.020487718,-0.991155742,-0.127471524,1,0,0,0,1,0,0,0,1,-0.017402695,-0.04987099,0.005674319,1.22E-07,0,0,0,1.22E-07,0,0,0,1.22E-07,-0.24516625,-1.01008495,9.75761675,9.00E-08,0,0,0,9.00E-08,0,0,0,9.00E-08
1616766034,123808,1616766034,109499840,fcu,-0.031625736,0.020440365,-0.991287119,-0.126221442,1,0,0,0,1,0,0,0,1,-0.003502908,-0.05242271,0.0350243,1.22E-07,0,0,0,1.22E-07,0,0,0,1.22E-07,1.6082906,-0.588399,10.3362091,9.00E-08,0,0,0,9.00E-08,0,0,0,9.00E-08
1616766034,123809,1616766034,148499840,fcu,-0.031777358,0.020932181,-0.991251731,-0.126380573,1,0,0,0,1,0,0,0,1,-0.002663629,-0.043189153,0.033811744,1.22E-07,0,0,0,1.22E-07,0,0,0,1.22E-07,2.9027684,0.83356525,10.56176205,9.00E-08,0,0,0,9.00E-08,0,0,0,9.00E-08
1616766034,123810,1616766034,189499840,fcu,-0.03214956,0.021008353,-0.991274751,-0.12609291,1,0,0,0,1,0,0,0,1,-0.006468059,-0.026048714,0.015903283,1.22E-07,0,0,0,1.22E-07,0,0,0,1.22E-07,1.8632635,-1.372931,11.2580342,9.00E-08,0,0,0,9.00E-08,0,0,0,9.00E-08
1616766034,123811,1616766034,228499840,fcu,-0.031267119,0.020901828,-0.991388159,-0.125439223,1,0,0,0,1,0,0,0,1,-0.000818999,0.002990324,0.020034229,1.22E-07,0,0,0,1.22E-07,0,0,0,1.22E-07,0.73549875,1.02969825,10.5323421,9.00E-08,0,0,0,9.00E-08,0,0,0,9.00E-08
1616766034,123812,1616766034,268499840,fcu,-0.031196759,0.021495597,-0.991418054,-0.125119714,1,0,0,0,1,0,0,0,1,-0.009719469,0.017907541,0.021952275,1.22E-07,0,0,0,1.22E-07,0,0,0,1.22E-07,-0.06864655,-0.1176798,10.1400761,9.00E-08,0,0,0,9.00E-08,0,0,0,9.00E-08
1616766034,123813,1616766034,309499840,fcu,-0.030632943,0.02204684,-0.991466503,-0.124778733,1,0,0,0,1,0,0,0,1,-0.02108359,0.022156838,0.022795694,1.22E-07,0,0,0,1.22E-07,0,0,0,1.22E-07,-0.6276256,-0.36284605,9.77723005,9.00E-08,0,0,0,9.00E-08,0,0,0,9.00E-08
1616766034,123814,1616766034,348499840,fcu,-0.030547238,0.022429712,-0.991486975,-0.124568663,1,0,0,0,1,0,0,0,1,-0.025670754,0.013058426,0.017403141,1.22E-07,0,0,0,1.22E-07,0,0,0,1.22E-07,0.196133,-0.89240515,9.1005712,9.00E-08,0,0,0,9.00E-08,0,0,0,9.00E-08
1616766034,123815,1616766034,388499840,fcu,-0.03032656,0.022371103,-0.991574751,-0.123932835,1,0,0,0,1,0,0,0,1,-0.016257349,0.014290383,0.020082876,1.22E-07,0,0,0,1.22E-07,0,0,0,1.22E-07,0.9022118,-1.1964113,9.07115125,9.00E-08,0,0,0,9.00E-08,0,0,0,9.00E-08
1616766034,123816,1616766034,428499840,fcu,-0.030432751,0.022184246,-0.991636828,-0.123442729,1,0,0,0,1,0,0,0,1,0.000854022,0.003098173,0.026333977,1.22E-07,0,0,0,1.22E-07,0,0,0,1.22E-07,1.02969825,-0.53936575,9.022118,9.00E-08,0,0,0,9.00E-08,0,0,0,9.00E-08
1616766034,123817,1616766034,468499840,fcu,-0.030505496,0.022034939,-0.991655185,-0.123303973,1,0,0,0,1,0,0,0,1,0.010466123,0.001026606,0.019805739,1.22E-07,0,0,0,1.22E-07,0,0,0,1.22E-07,0.1765197,-0.392266,10.0812362,9.00E-08,0,0,0,9.00E-08,0,0,0,9.00E-08
1616766035,123818,1616766034,509499840,fcu,-0.030140393,0.021339795,-0.991749333,-0.122757604,1,0,0,0,1,0,0,0,1,0.019805845,0.00349766,0.017858054,1.22E-07,0,0,0,1.22E-07,0,0,0,1.22E-07,0.44129925,-1.0787315,10.13026945,9.00E-08,0,0,0,9.00E-08,0,0,0,9.00E-08
1616766035,123819,1616766034,548499840,fcu,-0.03011917,0.020706411,-0.991863119,-0.121949302,1,0,0,0,1,0,0,0,1,0.030432828,0.010492029,0.027135683,1.22E-07,0,0,0,1.22E-07,0,0,0,1.22E-07,1.06892485,-0.3530394,10.2185293,9.00E-08,0,0,0,9.00E-08,0,0,0,9.00E-08
1616766035,123820,1616766034,589499840,fcu,-0.029416937,0.020038508,-0.99202399,-0.120919414,1,0,0,0,1,0,0,0,1,0.033992488,0.02214127,0.039306786,1.22E-07,0,0,0,1.22E-07,0,0,0,1.22E-07,1.24544455,0.0196133,10.13026945,9.00E-08,0,0,0,9.00E-08,0,0,0,9.00E-08
1616766035,123821,1616766034,628499840,fcu,-0.029191659,0.019720266,-0.992125392,-0.1201922,1,0,0,0,1,0,0,0,1,0.02990197,0.023711618,0.045269292,1.22E-07,0,0,0,1.22E-07,0,0,0,1.22E-07,0.85317855,0.51975245,9.7870367,9.00E-08,0,0,0,9.00E-08,0,0,0,9.00E-08
1616766035,123822,1616766034,668499840,fcu,-0.028651683,0.019549542,-0.992197402,-0.1197548,1,0,0,0,1,0,0,0,1,0.019079428,0.028278602,0.0375298,1.22E-07,0,0,0,1.22E-07,0,0,0,1.22E-07,-0.16671305,0.06864655,9.91452315,9.00E-08,0,0,0,9.00E-08,0,0,0,9.00E-08
1616766035,123823,1616766034,709499840,fcu,-0.02820581,0.019208586,-0.992323129,-0.118870813,1,0,0,0,1,0,0,0,1,0.012804797,0.025044963,0.034852792,1.22E-07,0,0,0,1.22E-07,0,0,0,1.22E-07,-0.1372931,-0.48052585,9.67916355,9.00E-08,0,0,0,9.00E-08,0,0,0,9.00E-08
1616766035,123824,1616766034,748499840,fcu,-0.027783007,0.018685235,-0.992473839,-0.117790683,1,0,0,0,1,0,0,0,1,0.016040998,0.02848557,0.043181092,1.22E-07,0,0,0,1.22E-07,0,0,0,1.22E-07,0.57859235,-0.46091255,9.7478101,9.00E-08,0,0,0,9.00E-08,0,0,0,9.00E-08
1616766035,123825,1616766034,789499840,fcu,-0.027249399,0.018274152,-0.992606403,-0.116859126,1,0,0,0,1,0,0,0,1,0.019269582,0.029573923,0.048540566,1.22E-07,0,0,0,1.22E-07,0,0,0,1.22E-07,1.14737805,-0.392266,9.79684335,9.00E-08,0,0,0,9.00E-08,0,0,0,9.00E-08
1616766035,123826,1616766034,828499840,fcu,-0.027107673,0.017787247,-0.992712147,-0.116066279,1,0,0,0,1,0,0,0,1,0.020479012,0.022326631,0.046530016,1.22E-07,0,0,0,1.22E-07,0,0,0,1.22E-07,0.32361945,-0.4314926,9.85568325,9.00E-08,0,0,0,9.00E-08,0,0,0,9.00E-08
1616766035,123827,1616766034,868499840,fcu,-0.027135751,0.017135338,-0.992842133,-0.115041426,1,0,0,0,1,0,0,0,1,0.025045838,0.013719289,0.046817463,1.22E-07,0,0,0,1.22E-07,0,0,0,1.22E-07,-0.4707192,-0.0392266,9.9635564,9.00E-08,0,0,0,9.00E-08,0,0,0,9.00E-08
1616766035,123828,1616766034,909499840,fcu,-0.027374922,0.017068514,-0.992886318,-0.114612565,1,0,0,0,1,0,0,0,1,0.021977924,0.004542306,0.041097671,1.22E-07,0,0,0,1.22E-07,0,0,0,1.22E-07,-0.46091255,0.93163175,9.85568325,9.00E-08,0,0,0,9.00E-08,0,0,0,9.00E-08
1616766035,123829,1616766034,948499840,fcu,-0.027743359,0.017218002,-0.992889145,-0.114477036,1,0,0,0,1,0,0,0,1,0.007179774,-0.014993357,0.023013696,1.22E-07,0,0,0,1.22E-07,0,0,0,1.22E-07,0.0980665,0.1569064,9.9047165,9.00E-08,0,0,0,9.00E-08,0,0,0,9.00E-08
1616766035,123830,1616766034,989499840,fcu,-0.028211145,0.017300943,-0.992945212,-0.11386226,1,0,0,0,1,0,0,0,1,-0.002634279,-0.01763338,0.018045478,1.22E-07,0,0,0,1.22E-07,0,0,0,1.22E-07,1.20621795,-0.26477955,9.7478101,9.00E-08,0,0,0,9.00E-08,0,0,0,9.00E-08
1616766035,123831,1616766035,28499840,fcu,-0.028388966,0.017530674,-0.993013725,-0.113183405,1,0,0,0,1,0,0,0,1,-0.007562856,-0.022474935,0.026052928,1.22E-07,0,0,0,1.22E-07,0,0,0,1.22E-07,1.61809725,0.34323275,9.2378643,9.00E-08,0,0,0,9.00E-08,0,0,0,9.00E-08
1616766035,123832,1616766035,68499840,fcu,-0.028852219,0.017832278,-0.993055791,-0.11264881,1,0,0,0,1,0,0,0,1,-0.013943766,-0.021584636,0.029688355,1.22E-07,0,0,0,1.22E-07,0,0,0,1.22E-07,0.85317855,0.08825985,9.87529655,9.00E-08,0,0,0,9.00E-08,0,0,0,9.00E-08
1616766035,123833,1616766035,109499840,fcu,-0.028670352,0.018025053,-0.993131048,-0.111999238,1,0,0,0,1,0,0,0,1,-0.015942411,-0.011175839,0.030426824,1.22E-07,0,0,0,1.22E-07,0,0,0,1.22E-07,0.63743225,-0.7256921,10.2381426,9.00E-08,0,0,0,9.00E-08,0,0,0,9.00E-08
1616766035,123834,1616766035,148499840,fcu,-0.02855743,0.01799607,-0.993238232,-0.111078478,1,0,0,0,1,0,0,0,1,-0.012513896,-0.003332241,0.036878902,1.22E-07,0,0,0,1.22E-07,0,0,0,1.22E-07,0.57859235,-0.8041453,9.610517,9.00E-08,0,0,0,9.00E-08,0,0,0,9.00E-08
1616766035,123835,1616766035,189499840,fcu,-0.028952513,0.017716557,-0.993322662,-0.110263163,1,0,0,0,1,0,0,0,1,-0.002851593,-0.000779049,0.042312488,1.22E-07,0,0,0,1.22E-07,0,0,0,1.22E-07,0.4314926,-0.65704555,9.65955025,9.00E-08,0,0,0,9.00E-08,0,0,0,9.00E-08
1616766035,123836,1616766035,228499840,fcu,-0.028878214,0.017212345,-0.993391774,-0.109738629,1,0,0,0,1,0,0,0,1,0.008000346,-0.005357189,0.037837081,1.22E-07,0,0,0,1.22E-07,0,0,0,1.22E-07,0.51975245,-0.53936575,9.44380395,9.00E-08,0,0,0,9.00E-08,0,0,0,9.00E-08
1616766035,123837,1616766035,268499840,fcu,-0.029302254,0.016687448,-0.993431819,-0.10934408,1,0,0,0,1,0,0,0,1,0.017454145,-0.003953693,0.028901801,1.22E-07,0,0,0,1.22E-07,0,0,0,1.22E-07,0.8825985,-0.588399,9.62032365,9.00E-08,0,0,0,9.00E-08,0,0,0,9.00E-08
1616766035,123838,1616766035,309499840,fcu,-0.029725073,0.016101583,-0.993471548,-0.108956146,1,0,0,0,1,0,0,0,1,0.023370462,-0.014704309,0.020651408,1.22E-07,0,0,0,1.22E-07,0,0,0,1.22E-07,0.65704555,-0.2745862,9.5320638,9.00E-08,0,0,0,9.00E-08,0,0,0,9.00E-08
1616766035,123839,1616766035,348499840,fcu,-0.030536858,0.015430271,-0.993570081,-0.107925444,1,0,0,0,1,0,0,0,1,0.027487943,-0.022434946,0.027250487,1.22E-07,0,0,0,1.22E-07,0,0,0,1.22E-07,0.22555295,-0.12748645,10.62060195,9.00E-08,0,0,0,9.00E-08,0,0,0,9.00E-08
1616766035,123840,1616766035,388499840,fcu,-0.030196223,0.014779995,-0.993728977,-0.106641734,1,0,0,0,1,0,0,0,1,0.031856604,-0.01363149,0.046544608,1.22E-07,0,0,0,1.22E-07,0,0,0,1.22E-07,0.95124505,0.9610517,9.89490985,9.00E-08,0,0,0,9.00E-08,0,0,0,9.00E-08
1616766035,123841,1616766035,428499840,fcu,-0.030819889,0.015041185,-0.993790467,-0.105850865,1,0,0,0,1,0,0,0,1,0.017088015,-0.010712517,0.05322976,1.22E-07,0,0,0,1.22E-07,0,0,0,1.22E-07,1.08853815,1.16699135,9.5712904,9.00E-08,0,0,0,9.00E-08,0,0,0,9.00E-08
1616766035,123842,1616766035,468499840,fcu,-0.030616302,0.015367985,-0.993872126,-0.105093598,1,0,0,0,1,0,0,0,1,-0.006231248,-0.004864264,0.045995727,1.22E-07,0,0,0,1.22E-07,0,0,0,1.22E-07,1.1571847,-0.196133,9.8851032,9.00E-08,0,0,0,9.00E-08,0,0,0,9.00E-08
1616766036,123843,1616766035,509499840,fcu,-0.030417486,0.015706187,-0.993929234,-0.104559883,1,0,0,0,1,0,0,0,1,-0.018292988,0.001485335,0.04051511,1.22E-07,0,0,0,1.22E-07,0,0,0,1.22E-07,1.2944778,0.196133,9.87529655,9.00E-08,0,0,0,9.00E-08,0,0,0,9.00E-08
1616766036,123844,1616766035,548499840,fcu,-0.030097316,0.016169487,-0.99393038,-0.104571021,1,0,0,0,1,0,0,0,1,-0.026390214,0.013499493,0.022693785,1.22E-07,0,0,0,1.22E-07,0,0,0,1.22E-07,1.176798,-0.1765197,9.8458766,9.00E-08,0,0,0,9.00E-08,0,0,0,9.00E-08
1616766036,123845,1616766035,589499840,fcu,-0.029942749,0.016490534,-0.993958587,-0.104296791,1,0,0,0,1,0,0,0,1,-0.029408084,0.015252842,0.01014713,1.22E-07,0,0,0,1.22E-07,0,0,0,1.22E-07,0.0784532,-1.0395049,9.7085835,9.00E-08,0,0,0,9.00E-08,0,0,0,9.00E-08
1616766036,123846,1616766035,628499840,fcu,-0.030130007,0.016640834,-0.994004384,-0.103781257,1,0,0,0,1,0,0,0,1,-0.021929469,0.005304828,0.014904593,1.22E-07,0,0,0,1.22E-07,0,0,0,1.22E-07,-0.5099458,-0.0196133,9.9831697,9.00E-08,0,0,0,9.00E-08,0,0,0,9.00E-08
1616766036,123847,1616766035,668499840,fcu,-0.030071349,0.016943535,-0.994030714,-0.103496719,1,0,0,0,1,0,0,0,1,-0.017684622,0.00381845,0.016248517,1.22E-07,0,0,0,1.22E-07,0,0,0,1.22E-07,-0.1569064,-0.4707192,9.83606995,9.00E-08,0,0,0,9.00E-08,0,0,0,9.00E-08
1616766036,123848,1616766035,709499840,fcu,-0.030184253,0.016753541,-0.994133682,-0.102500983,1,0,0,0,1,0,0,0,1,-0.009700915,-0.002838524,0.027114682,1.22E-07,0,0,0,1.22E-07,0,0,0,1.22E-07,0.8237586,-1.24544455,9.4732239,9.00E-08,0,0,0,9.00E-08,0,0,0,9.00E-08
1616766036,123849,1616766035,748499840,fcu,-0.03034726,0.016326962,-0.994252616,-0.101361781,1,0,0,0,1,0,0,0,1,0.004404083,0.000776498,0.045051403,1.22E-07,0,0,0,1.22E-07,0,0,0,1.22E-07,1.3925443,-0.5687857,9.6889702,9.00E-08,0,0,0,9.00E-08,0,0,0,9.00E-08
1616766036,123850,1616766035,789499840,fcu,-0.030344977,0.016024707,-0.994284391,-0.101098667,1,0,0,0,1,0,0,0,1,0.011531493,-0.002856359,0.042268012,1.22E-07,0,0,0,1.22E-07,0,0,0,1.22E-07,1.24544455,-0.3334261,9.50264385,9.00E-08,0,0,0,9.00E-08,0,0,0,9.00E-08
1616766036,123851,1616766035,828499840,fcu,-0.030526674,0.015461034,-0.994290477,-0.101071884,1,0,0,0,1,0,0,0,1,0.015317449,0.000840515,0.021504067,1.22E-07,0,0,0,1.22E-07,0,0,0,1.22E-07,0.2353596,-0.61781895,9.7478101,9.00E-08,0,0,0,9.00E-08,0,0,0,9.00E-08
1616766036,123852,1616766035,868499840,fcu,-0.030656446,0.014868425,-0.994308277,-0.100946334,1,0,0,0,1,0,0,0,1,0.021687899,-0.001088358,0.008165286,1.22E-07,0,0,0,1.22E-07,0,0,0,1.22E-07,0.1569064,-0.0196133,9.6301303,9.00E-08,0,0,0,9.00E-08,0,0,0,9.00E-08
1616766036,123853,1616766035,909499840,fcu,-0.030610801,0.014582263,-0.994318209,-0.10090409,1,0,0,0,1,0,0,0,1,0.019819099,0.001242695,0.002242252,1.22E-07,0,0,0,1.22E-07,0,0,0,1.22E-07,0.7453054,0.8629852,9.87529655,9.00E-08,0,0,0,9.00E-08,0,0,0,9.00E-08
1616766036,123854,1616766035,948499840,fcu,-0.030606485,0.014810708,-0.994316171,-0.100892212,1,0,0,0,1,0,0,0,1,0.006178356,0.001752757,0.001101433,1.22E-07,0,0,0,1.22E-07,0,0,0,1.22E-07,1.3337044,0.5295591,9.67916355,9.00E-08,0,0,0,9.00E-08,0,0,0,9.00E-08
1616766036,123855,1616766035,989499840,fcu,-0.030629934,0.015322472,-0.994286672,-0.101099171,1,0,0,0,1,0,0,0,1,-0.011653064,0.002090467,-0.002952232,1.22E-07,0,0,0,1.22E-07,0,0,0,1.22E-07,0.71588545,-0.0588399,9.9439431,9.00E-08,0,0,0,9.00E-08,0,0,0,9.00E-08
1616766036,123856,1616766036,28499840,fcu,-0.03064923,0.015815499,-0.994233486,-0.101539497,1,0,0,0,1,0,0,0,1,-0.022959629,-0.002253916,-0.011082316,1.22E-07,0,0,0,1.22E-07,0,0,0,1.22E-07,0.40207265,-0.4511059,9.81645665,9.00E-08,0,0,0,9.00E-08,0,0,0,9.00E-08
1616766036,123857,1616766036,68499840,fcu,-0.0305398,0.016294804,-0.994147995,-0.10233066,1,0,0,0,1,0,0,0,1,-0.026297092,0.003777539,-0.02354539,1.22E-07,0,0,0,1.22E-07,0,0,0,1.22E-07,0.2353596,-0.1372931,9.99297635,9.00E-08,0,0,0,9.00E-08,0,0,0,9.00E-08
1616766036,123858,1616766036,109499840,fcu,-0.030067125,0.016739874,-0.99407034,-0.103149907,1,0,0,0,1,0,0,0,1,-0.026654776,0.006794654,-0.036795951,1.22E-07,0,0,0,1.22E-07,0,0,0,1.22E-07,0.99047165,-0.4511059,9.93413645,9.00E-08,0,0,0,9.00E-08,0,0,0,9.00E-08
1616766036,123859,1616766036,148499840,fcu,-0.030062467,0.017031802,-0.994041695,-0.103379272,1,0,0,0,1,0,0,0,1,-0.021006867,0.014299607,-0.032538675,1.22E-07,0,0,0,1.22E-07,0,0,0,1.22E-07,1.32389775,-0.5295591,10.52253545,9.00E-08,0,0,0,9.00E-08,0,0,0,9.00E-08
1616766036,123860,1616766036,189499840,fcu,-0.029308838,0.017340596,-0.994049994,-0.103464507,1,0,0,0,1,0,0,0,1,-0.016661793,0.0186889,-0.017906884,1.22E-07,0,0,0,1.22E-07,0,0,0,1.22E-07,0.7649187,-0.40207265,10.5519554,9.00E-08,0,0,0,9.00E-08,0,0,0,9.00E-08
1616766036,123861,1616766036,228499840,fcu,-0.02895952,0.01765003,-0.994052279,-0.103488591,1,0,0,0,1,0,0,0,1,-0.015420132,0.025435638,-0.00705502,1.22E-07,0,0,0,1.22E-07,0,0,0,1.22E-07,-0.08825985,-1.0395049,10.2381426,9.00E-08,0,0,0,9.00E-08,0,0,0,9.00E-08
1616766036,123862,1616766036,268499840,fcu,-0.027794985,0.017338019,-0.994060493,-0.103781346,1,0,0,0,1,0,0,0,1,-0.00551893,0.038441774,-0.005988908,1.22E-07,0,0,0,1.22E-07,0,0,0,1.22E-07,0.22555295,-1.0198916,9.8654899,9.00E-08,0,0,0,9.00E-08,0,0,0,9.00E-08
1616766036,123863,1616766036,309499840,fcu,-0.027020201,0.016728962,-0.99406878,-0.104006302,1,0,0,0,1,0,0,0,1,0.011896121,0.048438109,-0.009732666,1.22E-07,0,0,0,1.22E-07,0,0,0,1.22E-07,1.18660465,-1.1179581,9.3751574,9.00E-08,0,0,0,9.00E-08,0,0,0,9.00E-08
1616766036,123864,1616766036,348499840,fcu,-0.02623755,0.01588686,-0.994087431,-0.10416035,1,0,0,0,1,0,0,0,1,0.029751508,0.050759412,-0.011324277,1.22E-07,0,0,0,1.22E-07,0,0,0,1.22E-07,1.12776475,-0.38245935,8.97308475,9.00E-08,0,0,0,9.00E-08,0,0,0,9.00E-08
1616766036,123865,1616766036,389499840,fcu,-0.025570577,0.015194894,-0.994091473,-0.104390628,1,0,0,0,1,0,0,0,1,0.038315903,0.048696406,-0.012136122,1.22E-07,0,0,0,1.22E-07,0,0,0,1.22E-07,0.32361945,0.1372931,9.24767095,9.00E-08,0,0,0,9.00E-08,0,0,0,9.00E-08
1616766036,123866,1616766036,428499840,fcu,-0.024863213,0.014647233,-0.994088359,-0.10466907,1,0,0,0,1,0,0,0,1,0.03661339,0.04169229,-0.013370441,1.22E-07,0,0,0,1.22E-07,0,0,0,1.22E-07,-0.2745862,0.30400615,9.2770909,9.00E-08,0,0,0,9.00E-08,0,0,0,9.00E-08
1616766036,123867,1616766036,468499840,fcu,-0.025249716,0.014682803,-0.994051486,-0.104921447,1,0,0,0,1,0,0,0,1,0.024844334,0.028348871,-0.014466092,1.22E-07,0,0,0,1.22E-07,0,0,0,1.22E-07,-1.3533177,0.4118793,9.62032365,9.00E-08,0,0,0,9.00E-08,0,0,0,9.00E-08
1616766037,123868,1616766036,509499840,fcu,-0.029043104,0.015204458,-0.993886246,-0.105429843,1,0,0,0,1,0,0,0,1,0.004751501,-0.062054031,-0.020915668,1.22E-07,0,0,0,1.22E-07,0,0,0,1.22E-07,-3.42252085,-1.20621795,11.3168741,9.00E-08,0,0,0,9.00E-08,0,0,0,9.00E-08
1616766037,123869,1616766036,548499840,fcu,-0.026987642,0.014160119,-0.993915578,-0.105844136,1,0,0,0,1,0,0,0,1,0.014791639,-0.056557715,-0.022838794,1.22E-07,0,0,0,1.22E-07,0,0,0,1.22E-07,-0.30400615,0.32361945,11.6110736,9.00E-08,0,0,0,9.00E-08,0,0,0,9.00E-08
1616766037,123870,1616766036,589499840,fcu,-0.02777782,0.0143863,-0.993813019,-0.106569747,1,0,0,0,1,0,0,0,1,0.017145205,-0.01629518,-0.029614743,1.22E-07,0,0,0,1.22E-07,0,0,0,1.22E-07,6.58026215,1.0002783,8.50236555,9.00E-08,0,0,0,9.00E-08,0,0,0,9.00E-08
1616766037,123871,1616766036,628499840,fcu,-0.026669807,0.014779641,-0.993812473,-0.106803802,1,0,0,0,1,0,0,0,1,-0.001949548,0.021604035,-0.028762478,1.22E-07,0,0,0,1.22E-07,0,0,0,1.22E-07,5.1582979,-0.9022118,8.6494653,9.00E-08,0,0,0,9.00E-08,0,0,0,9.00E-08
1616766037,123872,1616766036,668499840,fcu,-0.026983322,0.015160942,-0.993792042,-0.106861702,1,0,0,0,1,0,0,0,1,-0.015359328,0.007366596,-0.014840988,1.22E-07,0,0,0,1.22E-07,0,0,0,1.22E-07,-0.28439285,-0.48052585,9.36535075,9.00E-08,0,0,0,9.00E-08,0,0,0,9.00E-08
1616766037,123873,1616766036,709499840,fcu,-0.026076077,0.015405158,-0.993725888,-0.107664196,1,0,0,0,1,0,0,0,1,-0.018651508,0.030034019,-0.018729348,1.22E-07,0,0,0,1.22E-07,0,0,0,1.22E-07,-3.50097405,-0.26477955,10.1793027,9.00E-08,0,0,0,9.00E-08,0,0,0,9.00E-08
1616766037,123874,1616766036,748499840,fcu,-0.026069431,0.015109129,-0.993659676,-0.108316886,1,0,0,0,1,0,0,0,1,-0.007530924,0.015973615,-0.030057399,1.22E-07,0,0,0,1.22E-07,0,0,0,1.22E-07,-2.0593965,-1.8240369,9.07115125,9.00E-08,0,0,0,9.00E-08,0,0,0,9.00E-08
